PROVINCIA,COMUNE,ID_AGISCO,DENOMINAZIONE,INDIRIZZO,TIPOLOGIA SITO/ATTIVITA',LONGITUDINE,LATITUDINE,LOCATION,PRECISIONE_LOCATION
BRESCIA,ERBUSCO,BS069.0012,ditta Edil Plebani,LOCALITA' ZOCCO,n.d.,9.95925855,45.5964874,POINT (9.95925855 45.5964874),bassa
MANTOVA,CASTIGLIONE DELLE STIVIERE,MN017.0008,MONTE CORNA - BASE USAF DI AVIANO,LOCALITA' MONTE CORNA,n.d.,10.4913444,45.36072816,POINT (10.4913444 45.36072816),alta
MILANO,INVERUNO,MI113.0001,"EX ACI, PA.RO.GRA S.P.A.",VIA MAGENTA,n.d.,8.85208326,45.51356548,POINT (8.85208326 45.51356548),alta
MILANO,MILANO,MI146.0029,Area ex COGECO,"VIALE CASSALA, 16",n.d.,9.16235454,45.4449238,POINT (9.16235454 45.4449238),alta
MILANO,MILANO,MI146.0272,AREA DI LARGO ISARCO,"LARGO ISARCO, 2",aree industriali dismesse,9.205462,45.44434914,POINT (9.205462 45.44434914),alta
MILANO,MILANO,MI146.1077,EDIL CERTOSA,"VIALE CERTOSA, 308",n.d.,9.12279176,45.50326742,POINT (9.12279176 45.50326742),alta
MILANO,MILANO,MI146.3318,IMMOBILIARE CRISTALLO,"VIA LORENTEGGIO, 246",n.d.,9.12255535,45.44557095,POINT (9.12255535 45.44557095),alta
MILANO,PERO,MI170.0048,Cava Bossi,N.D.,n.d.,9.07702765,45.50685371,POINT (9.07702765 45.50685371),bassa
PAVIA,GARLASCO,PV069.0008,SOCOTHERM,"VIA SCALINA, 55",n.d.,8.90764591,45.19639746,POINT (8.90764591 45.19639746),alta
PAVIA,MORTARA,PV102.0023,BOMA AUTOTRASPORTI SRL,S.P.494,n.d.,8.7199521,45.2492437,POINT (8.7199521 45.2492437),alta
VARESE,TRADATE,VA127.0017,AUGUSTA,"VIA ISONZO, 33",n.d.,8.90596389,45.70744573,POINT (8.90596389 45.70744573),alta
MONZA E DELLA BRIANZA,LENTATE SUL SEVESO,MI119.0001,AREA EX TINTORIA F. BONECCHI,VIALE ITALIA (LOC.CAMNAGO) 9,aree industriali dismesse,9.13084884,45.66937865,POINT (9.13084884 45.66937865),alta
MILANO,CANEGRATE,MI046.0004,Forgiatura San Giorgio,"VIA VARESE, 10",aree industriali in attività,8.9230015,45.57185537,POINT (8.9230015 45.57185537),media
MILANO,MILANO,MI146.0021,AREA EX INNSE/INNOCENTI,"VIA RAFFAELE RUBATTINO, 98",aree industriali dismesse,9.24696064,45.47633813,POINT (9.24696064 45.47633813),alta
BERGAMO,DALMINE,BG091.0006,Ex P.V. Shell 11117,VIA DELLE VALLI,impianti di stoccaggio o adduzione carburanti,9.61452633,45.6567366,POINT (9.61452633 45.6567366),alta
MONZA E DELLA BRIANZA,MONZA,MI149.0042,AREA SPALLANZANI/GUERRAZZI-OBIETTIVI RESIDENZIALE,VIA SPALLANZANI/GUERRAZZI 13,aree industriali dismesse,9.2631722,45.56905005,POINT (9.2631722 45.56905005),alta
MILANO,MILANO,MI146.2435,PII VIALE RIMEMBRANZE DI LAMBRATE 1-3,"VIALE DELLE RIMEMBRANZE DI LAMBRATE, 1-3",serbatoi carburante per riscaldamento,9.23886547,45.48216673,POINT (9.23886547 45.48216673),alta
MILANO,MILANO,MI146.4164,AREA VIA GIOVENALE N. 15 / VIA COL MOSCHIN N. 14-16,"VIA GIOVENALE, 15",aree industriali dismesse,9.18524001,45.4496021,POINT (9.18524001 45.4496021),alta
MILANO,MILANO,MI146.0373,AREA EX DUCOIL EX CHEMIBER,"VIA ARCIVESCOVO CALABIANA, 10",impianti di stoccaggio rifiuti,9.20896217,45.44330282,POINT (9.20896217 45.44330282),alta
MILANO,MILANO,MI146.3886,IMMOBILE RESIDENZIALE,"ALZAIA NAVIGLIO GRANDE, 156",aree industriali dismesse,9.14983322,45.44663074,POINT (9.14983322 45.44663074),alta
MILANO,MILANO,MI146.3266,PV CARBURANTI BEYFIN,"VIA GIUSEPPE RIPAMONTI, 483",impianti di stoccaggio o adduzione carburanti,9.206212,45.4140652,POINT (9.206212 45.4140652),alta
VARESE,CARONNO PERTUSELLA,VA034.0001,RAM SRL - AREA EX PROCHIM,"VIA LURA, 236",aree industriali in attività,9.03644511,45.5930085,POINT (9.03644511 45.5930085),alta
MILANO,LACCHIARELLA,MI115.0002,OMAR - AREA INDUSTRIALE DISMESSA PETROLDRAGON,"VIA LIGURIA, 5/7",impianti di stoccaggio rifiuti,9.15759075,45.31805198,POINT (9.15759075 45.31805198),bassa
MILANO,SAN DONATO MILANESE,MI192.0010,Area Ex Edilmat,VIA TICINO,n.d.,9.26779811,45.4091935,POINT (9.26779811 45.4091935),alta
MILANO,MILANO,MI146.2505,AREA ARENGARIO,"VIA GUGLIELMO MARCONI, 1",altri siti non meglio specificati,9.18998585,45.46347633,POINT (9.18998585 45.46347633),alta
MILANO,NOVATE MILANESE,MI157.0014,Area Dismessa Via Cadorna,VIA LUIGI CADORNA,n.d.,9.1335046,45.53343253,POINT (9.1335046 45.53343253),alta
MONZA E DELLA BRIANZA,AGRATE BRIANZA,MI003.0005,UQUIFA SPA,"VIA DELLE INDUSTRIE, 84",aree industriali dismesse,9.34224826,45.56305556,POINT (9.34224826 45.56305556),alta
MILANO,MILANO,MI146.2770,AREA DI VIA GASTONE DA FOIX,VIA GASTONE DA FOIX/ATTENDOLO MUZIO SFORZA,n.d.,9.20266845,45.42685369,POINT (9.20266845 45.42685369),alta
MILANO,BUSTO GAROLFO,MI041.0003,"""AREA EX RONDANINI CONSORZIO REGIONALE NOVA DOMUS S.C.R.L.""","VIA CURIEL,VIA MONTENEVOSO,VIA TAGLIAMENTO",aree industriali dismesse,8.88180665,45.54160553,POINT (8.88180665 45.54160553),bassa
VARESE,VARESE,VA133.0076,"AREA proprietà privata, abbandono rifiuti","VIA MONTE GENEROSO, 98",altri siti non meglio specificati,8.85858299,45.79919275,POINT (8.85858299 45.79919275),alta
MILANO,MILANO,MI146.0335,AREA EX P.V. ESSO,PIAZZALE FRANCESCO BACONE,impianti di stoccaggio o adduzione carburanti,9.21521443,45.47994811,POINT (9.21521443 45.47994811),alta
MILANO,MILANO,MI146.3090,AREA VIA BERRA,"VIA DOMENICO BERRA, 8",aree industriali dismesse,9.24853679,45.50892463,POINT (9.24853679 45.50892463),alta
COMO,ORSENIGO,CO170.0001,EX VOSACEC,VIA COMO-BARAGIOLA,aree industriali in attività,9.18127427,45.77805958,POINT (9.18127427 45.77805958),alta
MILANO,MILANO,MI146.0022,EX AUSCHEM,"VIA GIUSEPPE DE NOTARIS, 50-51",aree industriali dismesse,9.24289265,45.51140652,POINT (9.24289265 45.51140652),alta
MILANO,MILANO,MI146.2600,PII GARIBALDI REPUBBLICA U1 RESIDENZIALE - LOTTO 3,VIA MELCHIORRE GIOIA,aree industriali dismesse,9.19117838,45.48118236,POINT (9.19117838 45.48118236),alta
BERGAMO,ZANICA,BG245.0003,Insediamento dismesso ex deposito prodotti petroliferi SARPP,S.S.CREMASCA,aree industriali dismesse,9.7042914,45.63842203,POINT (9.7042914 45.63842203),bassa
MILANO,RHO,MI182.0032,Autodemolizione Pontone s.n.c.,"VIA LAINATE, 134",aree industriali in attività,9.03079122,45.54872881,POINT (9.03079122 45.54872881),alta
MILANO,MILANO,MI146.1160,AREA EX NUOVA LINEA S.R.L.,"VIA CASORETTO, 35/A",aree industriali dismesse,9.2303016,45.48910842,POINT (9.2303016 45.48910842),alta
MILANO,MILANO,MI146.1069,Area di Via Don Minzoni 7 Il Frontalino,"VIA DON GIOVANNI MINZONI, 7",aree industriali in attività,9.16915003,45.50491476,POINT (9.16915003 45.50491476),alta
PAVIA,MORTARA,PV102.0001,DELTA TRASPORTI SRL (sversamento accidentale nel tratto Borgolavezzaro - Mortara,"VIA GORIZIA, 6",rilasci accidentali o dolosi di sostanze,8.74253695,45.25598902,POINT (8.74253695 45.25598902),alta
MILANO,CORNAREDO,MI087.0019,"MANULI TAPES SPA, KEMICA SPA","VIA R. MERENDI, 37",n.d.,9.03252145,45.484781,POINT (9.03252145 45.484781),alta
PAVIA,VIGEVANO,PV177.0023,IDEA S.R.L. - EX ERCOLE,"STRADA CATTABREGA, 199",aree industriali dismesse,8.8444956,45.28254943,POINT (8.8444956 45.28254943),alta
BERGAMO,ROMANO DI LOMBARDIA,BG183.0002,AREA VTR DI CILISTO SNC,"VIA PATRIOTI ROMANESI, 32",operazioni di recupero rifiuti,9.75552065,45.51585123,POINT (9.75552065 45.51585123),alta
PAVIA,VIGEVANO,PV177.0010,MIRABELLI (deposito materiali),"VIA VALLERE, 73",smaltimenti non autorizzati - abbandono rifiuti,8.83063297,45.31605182,POINT (8.83063297 45.31605182),alta
MONZA E DELLA BRIANZA,BRUGHERIO,MI034.0010,Area Via Cazzaniga,"VIA PAOLO CAZZANIGA, 41",aree industriali dismesse,9.30361305,45.54662567,POINT (9.30361305 45.54662567),alta
MONZA E DELLA BRIANZA,CESANO MADERNO,MI075.0008,Scuola Media S. D'Acquisto,"VIA ROBERTO COZZI, 7",rilasci accidentali o dolosi di sostanze,9.14755215,45.62509695,POINT (9.14755215 45.62509695),alta
MILANO,MILANO,MI146.3021,CONCONI 7 -AREA C,"VIA LUIGI CONCONI, 7",aree industriali dismesse,9.15933654,45.46819153,POINT (9.15933654 45.46819153),bassa
MILANO,VIMODRONE,MI242.0016,AREA PROPRIETA' T4 ELETTRONICA SPA,"VIA PADANA SUPERIORE, 331",aree industriali dismesse,9.27237138,45.51219663,POINT (9.27237138 45.51219663),alta
MILANO,MILANO,MI146.4077,AREA ORLANDI,"VIA ORTICA, 10",altri siti non meglio specificati,9.2434443,45.4709801,POINT (9.2434443 45.4709801),alta
MONZA E DELLA BRIANZA,GIUSSANO,MB024.0005,STRUTTURE DEMOLITE PER IL PIANO DI TRASFORMAZIONE URBANISTICA (TR7),"PIAZZA DELLA REPUBBLICA, 1",altri siti non meglio specificati,9.2078496,45.69734525,POINT (9.2078496 45.69734525),alta
MILANO,PERO,MI170.0008,DEPOSITO ACLAM ESSO ORA IPACLAM,"VIA CESARE BATTISTI, 9",aree industriali dismesse,9.0713945,45.51311884,POINT (9.0713945 45.51311884),alta
MILANO,TREZZANO SUL NAVIGLIO,MI220.0011,P.V. Q8 1322,"VIALE LEONARDO DA VINCI, 213",impianti di stoccaggio o adduzione carburanti,9.05178761,45.41834004,POINT (9.05178761 45.41834004),alta
PAVIA,CARBONARA AL TICINO,PV030.0002,SVERSAMENTO OLIO ISOLANTE DA TRASFORMATORE ENEL,FRAZIONE CANARAZZO,rilasci accidentali o dolosi di sostanze,9.08521616,45.19172615,POINT (9.08521616 45.19172615),alta
LODI,COMAZZO,LO020.0003,Area dismessa ex C.P.I. Three Stars,CASCINA FRATI,aree industriali dismesse,9.4521899,45.43957225,POINT (9.4521899 45.43957225),bassa
MILANO,MILANO,MI146.3703,EX FINA LUBE,VIA PALIZZI,n.d.,9.13895726,45.50274153,POINT (9.13895726 45.50274153),alta
MILANO,MILANO,MI146.0759,DITTA CANI DEMOLIZIONI AUTO,"VIA DELLA CHIESA ROSSA, 241",n.d.,9.16464775,45.4174083,POINT (9.16464775 45.4174083),alta
COMO,LAGLIO,CO119.0001,EX CANTIERI NAUTICI,VIA NUOVA REGINA,n.d.,9.13893759,45.89704145,POINT (9.13893759 45.89704145),alta
MILANO,OPERA,MI159.0009,AREA EX CISAM,"VIA ABRUZZI, 2",aree industriali dismesse,9.20954495,45.38155746,POINT (9.20954495 45.38155746),bassa
VARESE,BREBBIA,VA017.0001,P.V. API 40975,"VIA ROMA, 61",impianti di stoccaggio o adduzione carburanti,8.64285444,45.82504119,POINT (8.64285444 45.82504119),alta
MILANO,MILANO,MI146.1823,Residenza Correnti S.r.l.,"VIA VINCENZO TOFFETTI, 11",aree industriali dismesse,9.23522985,45.43622755,POINT (9.23522985 45.43622755),alta
MILANO,LEGNANO,MI118.0093,Area ex Liolà Print,VIA MONTE CASSINO,aree industriali dismesse,8.90202579,45.59134498,POINT (8.90202579 45.59134498),alta
MILANO,MILANO,MI146.0057,"EX ITALTEL, IL SOLE 24 ORE","PIAZZALE FRATELLI ZAVATTARI, 12",aree industriali dismesse,9.14348578,45.47614636,POINT (9.14348578 45.47614636),alta
COMO,COMO,CO075.0068,CHIBRO SPA,"VIA ROSCIO, 19",n.d.,9.04838635,45.82381189,POINT (9.04838635 45.82381189),alta
MILANO,BUSTO GAROLFO,MI041.0002,VASCHE DI SPAGLIAMENTO DELLE ACQUE NERE,N.D.,aree di spagliamento reflui fognari,8.88180665,45.54160553,POINT (8.88180665 45.54160553),bassa
MILANO,MILANO,MI146.0354,"EX SAI, PRADA INDUSTRIAL SPA","VIALE ORTLES, 36",aree industriali dismesse,9.20576901,45.43972834,POINT (9.20576901 45.43972834),alta
BRESCIA,OSPITALETTO,BS127.0006,"Tratta AV/AC MI-VR, lotto funzionale Treviglio -Brescia - sito OS04-CT101. SIR",TRATTA TRA KM 7+800 E 8+530,discariche abusive o incontrollate,10.07766575,45.55175032,POINT (10.07766575 45.55175032),bassa
VARESE,CARONNO PERTUSELLA,VA034.0035,AREA VIA BAINSIZZA,"VIA BAINSIZZA, 109",aree industriali dismesse,9.05116649,45.59158792,POINT (9.05116649 45.59158792),alta
MILANO,SAN GIULIANO MILANESE,MI195.0011,CASCINA SELMO - LOTTO A,LOCALITA' VIBOLDONE,aree industriali dismesse,9.2780372,45.3838531,POINT (9.2780372 45.3838531),bassa
MILANO,ROBECCHETTO CON INDUNO,MI183.0006,Area ex Rohm and Haas,VIA 3 GIUGNO/L.DA VINCI,aree industriali dismesse,8.76674728,45.53130272,POINT (8.76674728 45.53130272),alta
MILANO,MILANO,MI146.2407,Area di Via Montegrappa,"VIALE MONTE GRAPPA, 12",altri siti non meglio specificati,9.19028429,45.48074011,POINT (9.19028429 45.48074011),alta
MANTOVA,MANTOVA,MN030.0006,PARCHEGGIO OSPEDALE CARLO POMA - abbandono rifiuti,"VIALE PIETRO ALBERTONI, 1",smaltimenti non autorizzati - abbandono rifiuti,10.7730324,45.14899184,POINT (10.7730324 45.14899184),alta
MILANO,ROZZANO,MI189.0003,P.V. ESSO ITALIANA Srl,"VIALE LOMBARDIA, 38",impianti di stoccaggio o adduzione carburanti,9.1514541,45.3851963,POINT (9.1514541 45.3851963),alta
VARESE,FAGNANO OLONA,VA067.0006,SOCIETA' TIRO A VOLO - LOC. PASCHEI,"VIA POLIGONO, 6",altri siti non meglio specificati,8.88052268,45.67327551,POINT (8.88052268 45.67327551),alta
VARESE,BUSTO ARSIZIO,VA026.0038,Area Industriale Ex Ratti,"VIA PALESTRO, 11",aree industriali dismesse,8.84291128,45.61187451,POINT (8.84291128 45.61187451),alta
VARESE,CASTELLANZA,VA042.0031,EDIFICIO ARTIGIANALE EX TORNERIA MECCANICA,"VIA GIUSEPPE BRAMBILLA, 20",altri siti non meglio specificati,8.89400334,45.61163745,POINT (8.89400334 45.61163745),alta
MILANO,MILANO,MI146.0634,RIPAMONTI 99 SRL (area ex IdB Holding),"VIA GIUSEPPE RIPAMONTI, 99",aree industriali dismesse,9.19966035,45.44079359,POINT (9.19966035 45.44079359),alta
MILANO,MILANO,MI146.0186,"E VIA P. G. BECCARO, ZONA BICOCCA, PARCHEGGIO P7",VIA ETTORE FIERAMOSCA,aree industriali dismesse,9.21424181,45.5136998,POINT (9.21424181 45.5136998),alta
MILANO,SETTIMO MILANESE,MI211.0023,P.V. ESSO 2127 - 106125,"VIA PANZERI, 12",impianti di stoccaggio o adduzione carburanti,9.0517993,45.48924179,POINT (9.0517993 45.48924179),alta
LODI,CASALETTO LODIGIANO,LO008.0002,CASCINA MONCUCCA,FRAZIONE MAIRANO,altri siti non meglio specificati,9.35029365,45.28865538,POINT (9.35029365 45.28865538),bassa
VARESE,PORTO VALTRAVAGLIA,VA114.0003,AREA EX TELSA - EX FALEGNAMERIA CARPANETTI,VIALE DELLA REPUBBLICA,aree industriali dismesse,8.68517685,45.96279884,POINT (8.68517685 45.96279884),alta
BRESCIA,NAVE,BS117.0007,FONDERIA BRESCIANI,N.D.,aree industriali dismesse,10.29150915,45.58740267,POINT (10.29150915 45.58740267),bassa
VARESE,MARCHIROLO,VA097.0001,EX CAVA MAROCCHI,S.S.N 233 KM.68,smaltimenti non autorizzati - abbandono rifiuti,8.83454265,45.94182975,POINT (8.83454265 45.94182975),bassa
MILANO,MILANO,MI146.0124,Ex DE MEDICI & CO. S.p.A.,"VIA GIOVANNI BATTISTA GRASSI, 15",aree industriali dismesse,9.12612269,45.51341686,POINT (9.12612269 45.51341686),alta
BERGAMO,ALBINO,BG004.0007,EX CEMENTERIA ITALCEMENTI SPA,"VIA PRADELLA, 2",aree industriali dismesse,9.79820895,45.75590328,POINT (9.79820895 45.75590328),alta
MILANO,MILANO,MI146.1114,Area ex Senesi,"VIA OSLAVIA, 21",aree industriali dismesse,9.24779551,45.48151848,POINT (9.24779551 45.48151848),alta
PAVIA,VELLEZZO BELLINI,PV173.0002,"spargimento olio trasformatore ENEL, località Cascina Pellegrina",LOCALITA' CASCINA PELLEGRINA,rilasci accidentali o dolosi di sostanze,9.1035541,45.26997804,POINT (9.1035541 45.26997804),bassa
MILANO,CUSANO MILANINO,MI098.0030,AREA DI VIA SORMANI 39,"VIA CARLO SORMANI, 39",aree industriali dismesse,9.18608638,45.55030745,POINT (9.18608638 45.55030745),alta
MILANO,ARESE,MI009.0041,AREA INDUSTRIALE DISMESSA,"VIA MONTE ROSA, 3",aree industriali dismesse,9.08213174,45.55298945,POINT (9.08213174 45.55298945),alta
MILANO,CASSINA DE PECCHI,MI060.0017,AREA DI VIA PADANA SUPERIORE 28,VIA VILLA MAGRI,n.d.,9.38322717,45.5235341,POINT (9.38322717 45.5235341),alta
MILANO,RHO,MI182.0018,EX CHIMICA BIANCHI SUD,"VIA MAGENTA, 77",aree industriali dismesse,9.03755483,45.52165925,POINT (9.03755483 45.52165925),alta
MILANO,MILANO,MI146.2329,F.O.M. Industriale S.r.l. Area di Via Ussi 17,"VIA STEFANO USSI, 17",aree industriali in attività,9.20917748,45.50783874,POINT (9.20917748 45.50783874),alta
MILANO,SESTO SAN GIOVANNI,MI209.0045,Edificio Via Buozzi,"VIA BRUNO BUOZZI, 144",rilasci accidentali o dolosi di sostanze,9.22890059,45.52792135,POINT (9.22890059 45.52792135),alta
MILANO,SESTO SAN GIOVANNI,MI209.0008,"H1 PURICELLI GUERRA, COOPERATIVA SESTESE DI ABITAZIONE","VIA FRATELLI CAIROLI, 307",rilasci accidentali o dolosi di sostanze,9.23866704,45.53428364,POINT (9.23866704 45.53428364),bassa
BERGAMO,MOZZANICA,BG142.0001,"AREA EX VIANINI, BITIFIN SRL","STRADA STATALE 11 PADANA SUPERIORE, 591",aree industriali in attività,9.69395505,45.4735466,POINT (9.69395505 45.4735466),bassa
MILANO,MILANO,MI146.3625,AREA VIA MONTEGANI Corte interna,"VIA LUDOVICO MONTEGANI, 14",n.d.,9.17811888,45.43612883,POINT (9.17811888 45.43612883),alta
MILANO,MILANO,MI146.3652,P.I.I. Nuova Magazzini Generali - Sub Area3 Lotto 9,VIA PRINCIPE EUGENIO,aree industriali dismesse,9.1620071,45.48811354,POINT (9.1620071 45.48811354),alta
MILANO,MILANO,MI146.0780,AREA DI VIA PRINETTI,"VIA LUIGI PRINETTI, 4",aree industriali dismesse,9.22575264,45.49797409,POINT (9.22575264 45.49797409),alta
MILANO,MILANO,MI146.4217,AREA DI VIA MONTE GENEROSO 27,"VIA MONTE GENEROSO, 27",aree industriali dismesse,9.15453728,45.49297854,POINT (9.15453728 45.49297854),alta
LODI,CORNEGLIANO LAUDENSE,LO021.0004,Area ex Benzigas,N.D.,altri siti non meglio specificati,9.48079565,45.28623242,POINT (9.48079565 45.28623242),bassa
COMO,LOMAZZO,CO133.0013,AREA SERBATOI INTERRATI - HENKEL ITALIA,"VIALE COMO, 22",aree industriali in attività,9.03610316,45.70170196,POINT (9.03610316 45.70170196),alta
PAVIA,ALBONESE,PV003.0005,GESA IMPIANTI S.R.L.: SVERSAMENTO IN FREGIO ALLA EX SS 211 KM 69 IN COMUNE DI ALBONESE.,STRADA STATALE 211,rilasci accidentali o dolosi di sostanze,8.70614967,45.29395417,POINT (8.70614967 45.29395417),alta
SONDRIO,MADESIMO,SO035.0001,Area Via Carducci,VIA GIOSUE' CARDUCCI,impianti di stoccaggio o adduzione carburanti,9.35800592,46.4357114,POINT (9.35800592 46.4357114),alta
MILANO,ROZZANO,MI189.0014,Condominio Via Ariosto - serbatoio,"VIA LUDOVICO ARIOSTO, 31",altri siti non meglio specificati,9.17445657,45.38072778,POINT (9.17445657 45.38072778),alta
MILANO,MILANO,MI146.1488,P.V. AGIP 2246,VIA TOSCANA/L.GO BEETHOVEN,impianti di stoccaggio o adduzione carburanti,9.19639115,45.4465187,POINT (9.19639115 45.4465187),alta
MONZA E DELLA BRIANZA,MONZA,MB033.0022,AGAM SPA,"VIA ANTONIO CANOVA, 3",n.d.,9.28647355,45.584416,POINT (9.28647355 45.584416),alta
MILANO,PANTIGLIATE,MI167.0004,SVERSAMENTO DI GASOLIO A SEGUITO INCIDENTE 29.6.2009,LOCALITA' CASCINAZZA,n.d.,9.37059432,45.44100799,POINT (9.37059432 45.44100799),alta
LECCO,CALCO,LC012.0004,DEPURATORE CALCO-TOFFO: SVERSAMENTO DI CLORURO FERRICO,N.D.,rilasci accidentali o dolosi di sostanze,9.426362,45.72581503,POINT (9.426362 45.72581503),bassa
MILANO,MILANO,MI146.0220,ISTITUTO SIEROTERAPICO MILANESE - area Brioschi (denominato Lotto 1),"VIA CARLO ROBERTO DARWIN, 20/22",aree industriali dismesse,9.1746841,45.44546044,POINT (9.1746841 45.44546044),alta
BRESCIA,BRESCIA,BS029.0062,"Area Itaca, rimozione rifiuti","VIA ANTONIO STOPPANI, 6",aree industriali dismesse,10.1987458,45.54550559,POINT (10.1987458 45.54550559),alta
MILANO,MILANO,MI146.1660,AREA DISMESSA,"VIA VESPRI SICILIANI, 9",n.d.,9.15080008,45.45322009,POINT (9.15080008 45.45322009),alta
MANTOVA,MANTOVA,MN030.0072,P.V. Tamoil Italia n. 3423,"VIA EX SS.62 VIA PARMA,FRAZ.CAMATTINO 15/C",impianti di stoccaggio o adduzione carburanti,10.79481263,45.14381805,POINT (10.79481263 45.14381805),alta
MILANO,MILANO,MI146.1014,PROGESTIM S.P.A. (EX BOEHRINGER) VIA SERIO 15 ANG. VIA MARELLI,"VIA SERIO, 15",aree industriali in attività,9.20150403,45.44147175,POINT (9.20150403 45.44147175),alta
PAVIA,PAVIA,PV110.0011,Area Nichelcrom Imm.re,VIA CAMPEGGI 17,altri siti non meglio specificati,9.14521143,45.2068965,POINT (9.14521143 45.2068965),alta
VARESE,GAZZADA SCHIANNO,VA073.0001,PV TAMOIL 1958,"VIA ITALO CREMONA, 7",n.d.,8.82789131,45.7793429,POINT (8.82789131 45.7793429),alta
MILANO,BERNATE TICINO,MI019.0012,AREA POZZO TRECATE 18,CASCINA ROSSA,n.d.,8.81374715,45.4749252,POINT (8.81374715 45.4749252),bassa
MILANO,CORSICO,MI093.0002,EX CARTIERE BURGO S.P.A.,"VIA GUGLIELMO OBERDAN, 1",aree industriali dismesse,9.1031453,45.432645,POINT (9.1031453 45.432645),alta
MILANO,SANTO STEFANO TICINO,MI200.0005,AREA CITTERIO,VIA MAGENTA STRADA PROVINCIALE,aree industriali dismesse,8.91758445,45.48715236,POINT (8.91758445 45.48715236),alta
MILANO,MILANO,MI146.0298,CANTIERE EX P.V. CARBURANTI E AUTOLAVAGGIO,"VIA PINTURICCHIO, 26",impianti di stoccaggio o adduzione carburanti,9.22128575,45.47768324,POINT (9.22128575 45.47768324),alta
MONZA E DELLA BRIANZA,MONZA,MI149.0099,AREA VIA ADAMELLO/BRENNERO,VIA ADAMELLO ANG.VIA BRENNERO,aree industriali dismesse,9.26281431,45.58012513,POINT (9.26281431 45.58012513),alta
MONZA E DELLA BRIANZA,CAPONAGO,MI047.0002,GRUPPO BASSO S.P.A.,"VIALE DELL' INDUSTRIA, 17",rilasci accidentali o dolosi di sostanze,9.37988205,45.57034637,POINT (9.37988205 45.57034637),alta
MILANO,MILANO,MI146.3924,EX ANSALDO - LOTTO V2/V3,"VIALE SARCA, 232",aree industriali dismesse,9.21227342,45.52177796,POINT (9.21227342 45.52177796),alta
MILANO,MILANO,MI146.2721,LACERENZA EX AREA INDUSTRIALE,"VIA ALESSANDRO LITTA MODIGNANI, 112",aree industriali dismesse,9.15113438,45.5211092,POINT (9.15113438 45.5211092),alta
BERGAMO,SORISOLE,BG202.0003,ditta Ghidini M. Monte Bianco,N.D.,n.d.,9.6488136,45.75434433,POINT (9.6488136 45.75434433),bassa
MONZA E DELLA BRIANZA,BOVISIO MASCIAGO,MI030.0006,Area di Via Tolmino,"VIA TOLMINO, 51",aree industriali dismesse,9.15747134,45.61197549,POINT (9.15747134 45.61197549),alta
MILANO,CESANO BOSCONE,MI074.0004,AKZO NOBEL COATING SPA,VIA CROCE/VIA DE NICOLA,aree industriali in attività,9.08681285,45.43170459,POINT (9.08681285 45.43170459),alta
MILANO,COLOGNO MONZESE,MI081.0043,Area di Via Imbersago 51,"VIA PER IMBERSAGO, 51",aree industriali dismesse,9.28922189,45.54235056,POINT (9.28922189 45.54235056),alta
MILANO,MILANO,MI146.2284,AREA VIA ESIODO,"VIA ESIODO, 4",aree industriali dismesse,9.22224214,45.51348905,POINT (9.22224214 45.51348905),alta
MILANO,SAN DONATO MILANESE,MI192.0015,AREA DE GASPERI OVEST,VIALE ALCIDE DE GASPERI,aree industriali dismesse,9.25828005,45.42356899,POINT (9.25828005 45.42356899),alta
BRESCIA,ISEO,BS085.0004,Ex P.V. Carburanti,"VIA ROMA, 34",impianti di stoccaggio o adduzione carburanti,10.0507314,45.65643949,POINT (10.0507314 45.65643949),alta
BRESCIA,RONCADELLE,BS165.0002,ATTIVITA' COMMERCIALE DISMESSA,"VIA MARTIRI DELLA LIBERTA', 241",rilasci accidentali o dolosi di sostanze,10.15648957,45.52515121,POINT (10.15648957 45.52515121),alta
MONZA E DELLA BRIANZA,VAREDO,MI231.0001,STABILIMENTO FAREN S.P.A.,"VIA TERNI, 25",rilasci accidentali o dolosi di sostanze,9.17459509,45.5934802,POINT (9.17459509 45.5934802),alta
MILANO,MILANO,MI146.0574,area Lunetta - ex Stecca,VIE DE CASTILLIA/CONFALONIERI,aree industriali dismesse,9.18832003,45.48527131,POINT (9.18832003 45.48527131),alta
MILANO,MILANO,MI146.3426,ATREA DI VIA ITALO SVEVO,"VIA ITALO SVEVO, 5",altri siti non meglio specificati,9.16059589,45.44141885,POINT (9.16059589 45.44141885),alta
VARESE,DAVERIO,VA064.0004,"DITTA GIUDICI, IMMOBILIARE TURCATI","VIALE ROMA, 5",altri siti non meglio specificati,8.7720799,45.77633309,POINT (8.7720799 45.77633309),alta
SONDRIO,PRATA CAMPORTACCIO,SO054.0001,Ditta Tarca Recupero rifiuti,LOCALITA' LOCALITA PIZZO S.N.C.,operazioni di recupero rifiuti,9.38597241,46.29450765,POINT (9.38597241 46.29450765),alta
SONDRIO,TRESIVIO,SO070.0001,ENEL palo 20924 - fuoriuscita olio trasformatore,VIA SANTA CASA,n.d.,9.94263747,46.17644057,POINT (9.94263747 46.17644057),alta
MONZA E DELLA BRIANZA,CARATE BRIANZA,MB015.0001,SERBATOIO INTERRATO VIA MASCHERPA,VIA GIUSEPPE MASCHERPA,n.d.,9.23403247,45.6724212,POINT (9.23403247 45.6724212),alta
MILANO,MILANO,MI146.2972,AREA EX CABINA ELETTRICA,"VIA RODANO, 12",n.d.,9.23864034,45.48304974,POINT (9.23864034 45.48304974),alta
MILANO,PREGNANA MILANESE,MI179.0012,Area dismessa di Via Udine (EX LIGAS),"VIA UDINE, 2",aree industriali dismesse,8.9988784,45.51053655,POINT (8.9988784 45.51053655),alta
MILANO,MILANO,MI146.4029,AREA RUBATTINO 4 S.R.L.,"VIA RAFFAELE RUBATTINO, 4",aree industriali dismesse,9.24903084,45.4766802,POINT (9.24903084 45.4766802),alta
VARESE,ISPRA,VA084.0006,CONDENSER S.R.L,"VIA MILANO, 1733",aree industriali dismesse,8.60902156,45.80705952,POINT (8.60902156 45.80705952),alta
VARESE,TRADATE,VA127.0002,AREA DISMESSA EX SAPORITI,LOCALITA' ABBIATE GUAZZONE-VIA MARCONI 8,altri siti non meglio specificati,8.90954978,45.70934388,POINT (8.90954978 45.70934388),alta
MILANO,MILANO,MI146.2707,AREA AMBROS SARO,"VIA EDMONDO DE AMICIS, 20-22",serbatoi carburante per riscaldamento,9.17882617,45.45828664,POINT (9.17882617 45.45828664),alta
MILANO,MILANO,MI146.2824,AREA VIA G. DA CERMENATE,"VIALE GIOVANNI DA CERMENATE, 36",aree industriali dismesse,9.18016924,45.43740235,POINT (9.18016924 45.43740235),alta
COMO,CANTU,CO041.0013,PV SHELL 23036,"VIA GINEVRINA DA FOSSANO, 21",n.d.,9.13673656,45.73755701,POINT (9.13673656 45.73755701),alta
MILANO,MILANO,MI146.3785,ISTITUTO SIEROTERAPICO MILANESE - Area di discarica incontrollata,"VIA GIOVANNI SEGANTINI, 66",n.d.,9.17279439,45.44524816,POINT (9.17279439 45.44524816),alta
MILANO,SEGRATE,MI205.0061,CENTRALE TERMICA SAN FELICE,PIAZZALE STRADA ANULARE 22,altri siti non meglio specificati,9.28588185,45.4810733,POINT (9.28588185 45.4810733),bassa
MONZA E DELLA BRIANZA,VIMERCATE,MI241.0011,P.V. Q8 1135,"VIA TRIESTE, 62",impianti di stoccaggio o adduzione carburanti,9.35961062,45.61701665,POINT (9.35961062 45.61701665),alta
MILANO,COLOGNO MONZESE,MI081.0118,AREA DI V.LE EMILIA,"VIALE EMILIA, 63",aree industriali dismesse,9.27171527,45.52757873,POINT (9.27171527 45.52757873),alta
MILANO,MILANO,MI146.0603,GREEN CENTER S.r.l.,"VIA DERUTA, 19",smaltimenti non autorizzati - abbandono rifiuti,9.23905168,45.4929589,POINT (9.23905168 45.4929589),alta
MILANO,MILANO,MI146.3587,DITTA AGNONA SPA,"VIA ENRICO STENDHAL, 36",n.d.,9.1589414,45.4539498,POINT (9.1589414 45.4539498),alta
MILANO,TURBIGO,MI226.0002,CENTRALE TERMOELETTRICA EUROGEN spa,VIA CENTRALE TERMICA,aree industriali in attività,8.73071467,45.52635778,POINT (8.73071467 45.52635778),alta
BERGAMO,BERGAMO,BG024.0004,EX FILATI LASTEX - EDILFILA,"VIA GIORGIO GUSMINI, 2",aree industriali dismesse,9.700647,45.71267414,POINT (9.700647 45.71267414),alta
MILANO,NOVIGLIO,MI158.0005,SVERSAMENTO ACCIDENTALE GASOLIO,VIA PER DORESANO,rilasci accidentali o dolosi di sostanze,9.06806394,45.36397381,POINT (9.06806394 45.36397381),bassa
MILANO,MELEGNANO,MI140.0042,AREA PROSPICIENTE LA LINEA FERROVIARIA,VIA BEGONIE V.LE REPUBBLICA,altri siti non meglio specificati,9.32369057,45.35205295,POINT (9.32369057 45.35205295),alta
MILANO,MILANO,MI146.1501,ADS AGIP 12193,TANGENZIALE EST-AREA CASCINA GOBBA EST,impianti di stoccaggio o adduzione carburanti,9.266263,45.51292125,POINT (9.266263 45.51292125),alta
LECCO,PADERNO D ADDA,LC062.0003,Area IMEC,PIAZZA NINO COLNAGHI,aree industriali dismesse,9.44672544,45.68142285,POINT (9.44672544 45.68142285),alta
BERGAMO,TELGATE,BG212.0001,MARMI OROBICI GRANITI SPA,"VIA CAVALLERA, 1",aree industriali in attività,9.837626,45.63639665,POINT (9.837626 45.63639665),alta
MONZA E DELLA BRIANZA,BARLASSINA,MI013.0001,RECUPERO PER IL PARCO MILITARE- ACCORDO DI PROGRAMMA,CORSO GUGLIELMO MARCONI,aree industriali dismesse,9.13117008,45.65674694,POINT (9.13117008 45.65674694),alta
PAVIA,GARLASCO,PV069.0010,SVERSAMENTO ACCIDENTALE a seguito sinistro KM 5 + 300,STRADA PROVINCIALE 206,n.d.,8.92835014,45.18949905,POINT (8.92835014 45.18949905),alta
BRESCIA,ORZINUOVI,BS125.0010,Ditta FRENDO,"VIALE ADUA, 85",smaltimenti non autorizzati - abbandono rifiuti,9.93994185,45.4121124,POINT (9.93994185 45.4121124),alta
MILANO,MILANO,MI146.3905,STABILE VIA FOPPA 58 - Serbatoio,"VIA VINCENZO FOPPA, 58",serbatoi carburante per riscaldamento,9.1537499,45.45552829,POINT (9.1537499 45.45552829),alta
MONZA E DELLA BRIANZA,BUSNAGO,MI039.0002,"Centro Riutilizzo Materiali (CRM) ex IBM, IBM Italia SpA","VIA PIEMONTE, 3",aree industriali in attività,9.45357429,45.61572615,POINT (9.45357429 45.61572615),alta
MILANO,MILANO,MI146.0936,AREA RETE FERROVIARIA ITALIANA S.p.A.,"VIA ERNESTO BREDA, 28",aree industriali dismesse,9.21382814,45.50973004,POINT (9.21382814 45.50973004),alta
CREMONA,CALVATONE,CR009.0002,Sversamento cisterna stirene,S.S.10 PADANIA INF.258+00,rilasci accidentali o dolosi di sostanze,10.44348215,45.12169999,POINT (10.44348215 45.12169999),alta
MILANO,MILANO,MI146.2186,Condominio Legioni Romane - serbatoio,"VIALE LEGIONI ROMANE, 65",serbatoi carburante per riscaldamento,9.1273772,45.4588902,POINT (9.1273772 45.4588902),alta
MILANO,MELZO,MI142.0020,EGIDIO GALBANI S.P.A. VIA TOGLIATTI N°8,"VIA PALMIRO TOGLIATTI, 8",aree industriali dismesse,9.41497682,45.49241063,POINT (9.41497682 45.49241063),alta
LECCO,MANDELLO DEL LARIO,LC046.0004,DITTA CARCANO ANTONIO,"VIA ANTONIO CARCANO, 10",n.d.,9.32144172,45.92406074,POINT (9.32144172 45.92406074),alta
MILANO,CARUGATE,MI051.0002,"area SEREGNA 5, ENI SpA",STRADA CARUGATE-PESSANO,attività minerarie o estrattive,9.34416885,45.55086821,POINT (9.34416885 45.55086821),bassa
SONDRIO,PIATEDA,SO049.0001,CENTRALE EDISON VENINA,"VIA CENTRALE VENINA, 7",aree industriali in attività,9.92691657,46.16133992,POINT (9.92691657 46.16133992),alta
MILANO,SETTALA,MI210.0011,AREA LAGHETTO S.P. PAULLESE KM 10,VIA DON MINZONI SPPAULLESE KM 10,n.d.,9.39262833,45.424781,POINT (9.39262833 45.424781),alta
MILANO,PIOLTELLO,MI175.0008,AREA SEVI S.r.l. EX REBOSIO,"VIA ANDREA MANTEGNA, 52",aree industriali dismesse,9.33074786,45.50580579,POINT (9.33074786 45.50580579),alta
MILANO,MILANO,MI146.3482,AREA FG.260.PART.213.SUB.702,"VIALE SEVERINO BOEZIO, 20",aree industriali dismesse,9.16031021,45.47952982,POINT (9.16031021 45.47952982),alta
MILANO,BUBBIANO,MI035.0001,Area Ex SICOP-COIGNET,N.D.,aree industriali dismesse,9.0055822,45.32794821,POINT (9.0055822 45.32794821),bassa
MILANO,MILANO,MI146.4230,AREA INDUSTRIALE DISMESSA,"VIA MAFFEO BAGAROTTI, 5",aree industriali dismesse,9.09650052,45.45764384,POINT (9.09650052 45.45764384),alta
BRESCIA,POZZOLENGO,BS151.0001,"TECNOTRAS SRL, SVERSAMENTO S.P. 13",S.P.N 13,rilasci accidentali o dolosi di sostanze,10.6202911,45.40690011,POINT (10.6202911 45.40690011),bassa
MILANO,CERNUSCO SUL NAVIGLIO,MI070.0032,Area di Vicolo Torriani,VICOLO TORRIANI,n.d.,9.33221128,45.52819571,POINT (9.33221128 45.52819571),alta
MILANO,MILANO,MI146.2376,LINEA MM5 TRATTA ISOLA/BIGNAMI POZZO PONALE BIGNAMI,TRATTA ISOLA/GARIBALDI,altri siti non meglio specificati,9.18391195,45.47211145,POINT (9.18391195 45.47211145),alta
BRESCIA,COLOGNE,BS059.0002,"AREA ""EX ZAMBELLINI""",VIA PONTE FABBRO,rilasci accidentali o dolosi di sostanze,9.94291149,45.58029095,POINT (9.94291149 45.58029095),alta
MILANO,BOLLATE,MI027.0066,FONTANILE FONTANILETTO,UBOLDI FRAZ.BARANZATE,n.d.,9.11534154,45.54731776,POINT (9.11534154 45.54731776),bassa
MILANO,MILANO,MI146.2918,EX AUTOOFFICINA /CARROZZERIA,VIA CECCHI 13 ANG.VIA FUSARO,aree industriali dismesse,9.15207811,45.46057929,POINT (9.15207811 45.46057929),alta
MILANO,MILANO,MI146.0382,"PV 6130, TAMOIL PETROLI SPA","VIA SIMONE SAINT BON, 34",impianti di stoccaggio o adduzione carburanti,9.12196555,45.4579943,POINT (9.12196555 45.4579943),alta
MILANO,MAGNAGO,MI131.0005,Area industriale Ex URSUS PERONI,"VIA GOFFREDO MAMELI, 8/10",aree industriali dismesse,8.8018865,45.58077944,POINT (8.8018865 45.58077944),alta
MILANO,MILANO,MI146.1097,EX P.V. IP N. 6064,"VIA ARBE, 100",impianti di stoccaggio o adduzione carburanti,9.19611987,45.49501737,POINT (9.19611987 45.49501737),alta
MILANO,MILANO,MI146.3162,EX SEDE MONTE TITOLI,"VIA ANDREA MANTEGNA, 6",altri siti non meglio specificati,9.16854181,45.48293021,POINT (9.16854181 45.48293021),alta
MILANO,MILANO,MI146.3200,AREA PROPRIETA BOCCONI,"VIALE BLIGNY, 22",n.d.,9.18972705,45.45106145,POINT (9.18972705 45.45106145),alta
BERGAMO,BERGAMO,BG024.0010,"EX FERVET, CEFIS","VIA PIETRO ROVELLI, 60",aree industriali in attività,9.7021983,45.68770078,POINT (9.7021983 45.68770078),alta
MONZA E DELLA BRIANZA,MONZA,MI149.0027,Ex Cotonificio Cederna,VIA ANTONIO CEDERNA,aree industriali dismesse,9.2971729,45.57691798,POINT (9.2971729 45.57691798),alta
MILANO,NERVIANO,MI154.0001,TRATTAMENTI TERMICI NERVIANESI S.p.A.,"VIALE I MAGGIO, 30",aree industriali in attività,8.96591831,45.54397876,POINT (8.96591831 45.54397876),alta
MILANO,MILANO,MI146.0620,P.V. ESSO 0503,"PIAZZALE LUIGI EMANUELE CORVETTO, 8",impianti di stoccaggio o adduzione carburanti,9.22432914,45.43958965,POINT (9.22432914 45.43958965),alta
MILANO,PIEVE EMANUELE,MI173.0012,AREA ORTI VIA NENNI,VIA PIETRO NENNI,smaltimenti non autorizzati - abbandono rifiuti,9.19081108,45.33967525,POINT (9.19081108 45.33967525),alta
MILANO,MILANO,MI146.2836,"AREA CONDOMINIO, serbatoi","VIA COSTANZA, 41",altri siti non meglio specificati,9.15043108,45.45986963,POINT (9.15043108 45.45986963),alta
MILANO,MILANO,MI146.4179,AREA DI VIALE MONZA 273,"VIALE MONZA, 273",altri siti non meglio specificati,9.22467196,45.51283426,POINT (9.22467196 45.51283426),alta
MILANO,MILANO,MI146.3999,AREA PRIVATA,"VIALE MONTELLO, 6",aree industriali dismesse,9.18134042,45.48132735,POINT (9.18134042 45.48132735),alta
CREMONA,CREMONA,CR036.0004,"TAMOIL RAFFINAZIONE, LESIONE OLEODOTTO",LOCALITA' BOSCO EX PARMIGIANO,rilasci accidentali o dolosi di sostanze,10.03135335,45.1262003,POINT (10.03135335 45.1262003),alta
CREMONA,CREMONA,CR036.0002,PUNTO VENDITA SHELL 25007,"VIA MILANO, 22",impianti di stoccaggio o adduzione carburanti,9.9923564,45.1439763,POINT (9.9923564 45.1439763),alta
BERGAMO,CASTIONE DELLA PRESOLANA,BG064.0001,Spandimento carburante a seguito di incidente stradale automezzo,S.P.671-LOC.BRATTO,rilasci accidentali o dolosi di sostanze,10.05663955,45.92264563,POINT (10.05663955 45.92264563),bassa
MILANO,MILANO,MI146.4141,AREA DI VIA TRASIMENO 84,"VIA TRASIMENO, 84",altri siti non meglio specificati,9.25136785,45.51748188,POINT (9.25136785 45.51748188),alta
MILANO,MILANO,MI146.0907,Area PII Ponte Lambro,VIE PAREA 22,aree industriali dismesse,9.15933654,45.46819153,POINT (9.15933654 45.46819153),bassa
VARESE,VARESE,VA133.0058,Cantiere di Via peschiera,VIA PESCHIERA,n.d.,8.86132666,45.81250698,POINT (8.86132666 45.81250698),alta
MILANO,PARABIAGO,MI168.0016,AREA EX TESSITURA CASTOLDI,"VIA XXIV MAGGIO, 31",aree industriali dismesse,8.95021141,45.55484211,POINT (8.95021141 45.55484211),alta
MILANO,MILANO,MI146.2394,GIARDINI BENACO S.R.L.,"VIA VALTELLINA, 32",n.d.,9.18183555,45.49197199,POINT (9.18183555 45.49197199),alta
MILANO,SAN COLOMBANO AL LAMBRO,LO191.0001,DISCARICA adiacente CIMITERO COMUNALE,LOCALITA' CIMITERO,smaltimenti non autorizzati - abbandono rifiuti,9.48476625,45.17711325,POINT (9.48476625 45.17711325),bassa
MILANO,ZIBIDO SAN GIACOMO,MI247.0001,Cava Centopertiche ex Depac,CASCINA CENTO PERTICHE,discariche abusive o incontrollate,9.11747947,45.3724483,POINT (9.11747947 45.3724483),alta
MILANO,ARESE,MI009.0019,"EX MGT SRL, AREA INDUSTRIALE DISMESSA","VIA SENATO, 13",aree industriali dismesse,9.08439693,45.54390894,POINT (9.08439693 45.54390894),alta
BERGAMO,MEDOLAGO,BG250.0001,Soc. Immobiliare ZABE area ex SEI,VIA ROMA,aree industriali in attività,9.49526469,45.6734191,POINT (9.49526469 45.6734191),alta
MILANO,PADERNO DUGNANO,MI166.0004,AREA EX TILANE,"VIA ARBORINA, 2",aree industriali dismesse,9.15946205,45.56736368,POINT (9.15946205 45.56736368),alta
MILANO,ROZZANO,MI189.0047,LA DUCALE S.P.A.,"VIA MONTE BIANCO, 50",n.d.,9.15395837,45.39710882,POINT (9.15395837 45.39710882),alta
LODI,MERLINO,LO039.0001,PADANA RIFIUTI LORIA METAL,VIA MILANO,discariche abusive o incontrollate,9.4480339,45.42460266,POINT (9.4480339 45.42460266),bassa
MONZA E DELLA BRIANZA,MISINTO,MI147.0001,EX COMBIPRAND,"VIA DELLA LONGURA, 6",aree industriali dismesse,9.07149608,45.66185716,POINT (9.07149608 45.66185716),alta
MILANO,MILANO,MI146.1037,VALES S.r.l.,"VIA GIUSEPPE CANDIANI, 66",aree industriali dismesse,9.16678639,45.5041084,POINT (9.16678639 45.5041084),alta
MILANO,TREZZANO SUL NAVIGLIO,MI220.0029,Area di via Mazzini,"VIA GIUSEPPE MAZZINI, 20",altri siti non meglio specificati,9.06015785,45.42387795,POINT (9.06015785 45.42387795),alta
MILANO,GUDO VISCONTI,MI112.0001,Area Via Cornaggia 2,"VIA CORNAGGIA, 2",aree industriali dismesse,8.99772442,45.3732242,POINT (8.99772442 45.3732242),alta
PAVIA,PIZZALE,PV116.0002,Soc. Autotrasporti di Sandrone e C. Snc,STRADA PROVINCIALE 23,n.d.,9.04833028,45.03652388,POINT (9.04833028 45.03652388),alta
MILANO,COLOGNO MONZESE,MI081.0006,AREA ISSCO,"VIA FRANCESCO BARACCA, 29",aree industriali dismesse,9.26987976,45.52663639,POINT (9.26987976 45.52663639),alta
VARESE,CAIRATE,VA029.0001,MONTALBETTI SPA,"VIA CARLO PORTA, 7/12C",aree industriali in attività,8.84789082,45.69319843,POINT (8.84789082 45.69319843),alta
MILANO,MILANO,MI146.2249,HOT SPOT 2V - PII GARIBALDI/REPUBBLICA,VIALE DON LUIGI STURZO,altri siti non meglio specificati,9.18760009,45.48335906,POINT (9.18760009 45.48335906),alta
MONZA E DELLA BRIANZA,CONCOREZZO,MI084.0004,NUOVA IMMOBILIARE BRIANTEA SRL (EX MAGAZZINI GENERALI DELLA BRIANZA) EX DOGANA,VIA MONTE ROSA,aree industriali in attività,9.32800079,45.59519985,POINT (9.32800079 45.59519985),alta
VARESE,BUSTO ARSIZIO,VA026.0065,CONSORZIO ACCAM,"STRADA COMUNALE PER ARCONATE, 121",aree industriali dismesse,8.83615489,45.57517925,POINT (8.83615489 45.57517925),alta
MILANO,ROZZANO,MI189.0090,AREA COMUNALE P.ZZA FOGLIA,PIAZZA GIOVANNI FOGLIA,altri siti non meglio specificati,9.15349833,45.3813485,POINT (9.15349833 45.3813485),alta
LODI,CAVENAGO D ADDA,LO017.0003,"ENI SPA, CAVIAGA 8",N.D.,attività minerarie o estrattive,9.59457635,45.29038788,POINT (9.59457635 45.29038788),bassa
MILANO,MILANO,MI146.1813,ARREA DI VIA GIAMBELLINO 31,"VIA GIAMBELLINO, 31",aree industriali dismesse,9.15007663,45.45103621,POINT (9.15007663 45.45103621),alta
MILANO,LAINATE,MI116.0004,GAMMACHIMICA SPA,"VIA BERGAMO, 7",rilasci accidentali o dolosi di sostanze,9.0170134,45.56762173,POINT (9.0170134 45.56762173),alta
MILANO,MILANO,MI146.2464,EX ITALFRIGOR,"VIA MARCO FABIO QUINTILIANO, 5",aree industriali dismesse,9.24165195,45.45316147,POINT (9.24165195 45.45316147),alta
VARESE,CASTELLANZA,VA042.0011,Area Ex ZC - imm.re CANTER,VIA VENETO-GIUSTI,aree industriali dismesse,8.8991576,45.61115712,POINT (8.8991576 45.61115712),alta
MONZA E DELLA BRIANZA,LISSONE,MI123.0004,IMMOBILIARE BELGIOIOSO - AREA EX MONTANA,VIA DON GIOVANNI MINZONI,aree industriali dismesse,9.23907067,45.61184357,POINT (9.23907067 45.61184357),alta
MILANO,MILANO,MI146.2083,AREA EX COMMERCIALE,"VIA FORTEZZA, 13",rilasci accidentali o dolosi di sostanze,9.22314936,45.51921176,POINT (9.22314936 45.51921176),alta
MILANO,CINISELLO BALSAMO,MI077.0024,Area Triade S.r.l.,"VIALE DEI PARTIGIANI, 111/113",aree industriali dismesse,9.22242,45.54494572,POINT (9.22242 45.54494572),alta
MILANO,SAN GIULIANO MILANESE,MI195.0066,SOCIETA' ROGGIA MOLINA S.R.L.,"CARDUCCI,PORTA,CAVOUR",aree industriali dismesse,9.2780372,45.3838531,POINT (9.2780372 45.3838531),bassa
MILANO,SOLARO,MI213.0021,AREA VIA CAVOUR,VIA CAMILLO BENSO CONTE DI CAVOUR,aree industriali dismesse,9.08068389,45.61986967,POINT (9.08068389 45.61986967),alta
VARESE,CARONNO PERTUSELLA,VA034.0019,AREA EX DUPONT,"VIA TRIESTE, 292",aree industriali dismesse,9.05878827,45.58682357,POINT (9.05878827 45.58682357),alta
MILANO,PARABIAGO,MI168.0047,AREA VIA REGINA MARGHERITA,"VIA REGINA MARGHERITA, 10",aree industriali dismesse,8.93951181,45.56221696,POINT (8.93951181 45.56221696),alta
MILANO,MILANO,MI146.2528,M5-ISOLA DON STURZO-P.ZZA FREUD,VIALE DON STURZO/PIAZZA FREUD,aree industriali dismesse,9.18760009,45.48335906,POINT (9.18760009 45.48335906),alta
MILANO,CORMANO,MI086.0011,"AREA ""COTONIFICIO DI SOLBIATE OLONA"" - PAS 2","VIA NAZARIO SAURO, 15",aree industriali dismesse,9.17251971,45.54574618,POINT (9.17251971 45.54574618),alta
MILANO,MILANO,MI146.0062,AREA EX CELESTRI,"PIAZZALE BOLOGNA, 7",altri siti non meglio specificati,9.22373118,45.44441653,POINT (9.22373118 45.44441653),alta
MILANO,MILANO,MI146.4100,AREA EX CAMPO NOMADI,VIA LUCIO CORNELIO SILLA,altri siti non meglio specificati,9.08021491,45.49056809,POINT (9.08021491 45.49056809),alta
VARESE,SESTO CALENDE,VA120.0003,Località Lisanza - Sversamento idrocarburi,VIA DEI PESCATORI,n.d.,8.60032682,45.73454512,POINT (8.60032682 45.73454512),alta
MILANO,MILANO,MI146.0130,P.V. API DI VIA SILVA,"VIA GUGLIELMO SILVA, 33",impianti di stoccaggio o adduzione carburanti,9.14761981,45.4787586,POINT (9.14761981 45.4787586),alta
MILANO,MILANO,MI146.0547,AREA ALAMANNI,"VIA LUIGI ALAMANNI, 8",aree industriali dismesse,9.19997488,45.4338643,POINT (9.19997488 45.4338643),alta
MILANO,SESTO SAN GIOVANNI,MI209.0030,AREA EX MARELLI - EX GIEM,"VIALE THOMAS ALVA EDISON, 130",aree industriali dismesse,9.24543454,45.53196645,POINT (9.24543454 45.53196645),alta
COMO,FINO MORNASCO,CO102.0005,ERG PETROLI PUNTO VENDITA CO/208,S.P.PER CUCCIAGO,rilasci accidentali o dolosi di sostanze,9.05544135,45.74300242,POINT (9.05544135 45.74300242),bassa
MILANO,BARANZATE,MI250.0041,AREA VIA FIUME,"VIA FIUME, 7",n.d.,9.12006952,45.52305289,POINT (9.12006952 45.52305289),alta
MILANO,ABBIATEGRASSO,MI002.0025,PLESSO SCOLASTICO DI VIA COLOMBO - smaltimento materiale di riporto,"VIA CRISTOFORO COLOMBO, 10/12",n.d.,8.92393211,45.39725353,POINT (8.92393211 45.39725353),alta
MILANO,MILANO,MI146.2557,AREA DEI PIETRI E G.PESTAGALLI -area sud-est,"VIA PIETRO E GIUSEPPE DEI PESTAGALLI, 40-45",aree industriali dismesse,9.23773119,45.43851168,POINT (9.23773119 45.43851168),alta
BRESCIA,BORGOSATOLLO,BS021.0004,CUMULI DI RIFIUTI DEPOSITATI IN VIA FERRI,VIA FERRI,n.d.,10.25280336,45.4772863,POINT (10.25280336 45.4772863),alta
MONZA E DELLA BRIANZA,DESIO,MI100.0004,Area Ex Tilane,"VIA GIACOMO MATTEOTTI, 81",aree industriali dismesse,9.20041628,45.61625721,POINT (9.20041628 45.61625721),alta
MILANO,MILANO,MI146.1768,Area Ex Alserio Cart,"VIA ALSERIO, 3/6",aree industriali dismesse,9.18496104,45.491252,POINT (9.18496104 45.491252),alta
MILANO,MILANO,MI146.0107,"VIA A. PIRELLI, ZONA BICOCCA, PARCHEGGIO P8 , MILANO CENTRALE SERVIZI DI SVILUPPO","VIALE SARCA, 222",aree industriali dismesse,9.21131999,45.52011875,POINT (9.21131999 45.52011875),alta
SONDRIO,CHIAVENNA,SO018.0001,P.V. IP N. 2314,PIAZZA GIUSEPPE VERDI,impianti di stoccaggio o adduzione carburanti,9.39995508,46.31853584,POINT (9.39995508 46.31853584),alta
MILANO,MILANO,MI146.3031,AREA DI VIA PIERO DELLA FRANCESCA,"VIA PIERO DELLA FRANCESCA, 8",n.d.,9.16685625,45.48238061,POINT (9.16685625 45.48238061),alta
MILANO,CERNUSCO SUL NAVIGLIO,MI070.0003,AREA IMMOBILIARE FONTANILE,"VIA MONZA, 124",aree industriali dismesse,9.31771339,45.52495455,POINT (9.31771339 45.52495455),alta
VARESE,SARONNO,VA119.0043,AREA EX SAPRETE,"VIA VARESE, 38",aree industriali dismesse,9.03248289,45.61598795,POINT (9.03248289 45.61598795),alta
MILANO,LEGNANO,MI118.0018,ABB POWER TECHNOLOGIES S.p.A.,"VIA GIOTTO, 10",aree industriali in attività,8.91520825,45.57984113,POINT (8.91520825 45.57984113),alta
BRESCIA,BRESCIA,BS029.0128,AREA EX IDRA PRESSE,"VIA TRIUMPLINA, 43",aree industriali dismesse,10.22951674,45.56608805,POINT (10.22951674 45.56608805),alta
MILANO,MILANO,MI146.0719,"VULCANO 2001 S.R.L. - EX AREA INDUSTRIALE ""F.LLI BORLETTI""","VIA GIORGIO WASHINGTON, 53",aree industriali dismesse,9.15492524,45.4605264,POINT (9.15492524 45.4605264),alta
LECCO,BOSISIO PARINI,LC009.0001,STAMPERIA BRENNA E C. - ZONA POZZO PERDENTE,"VIA SANT' AMBROGIO, 30",aree industriali in attività,9.28249623,45.7969467,POINT (9.28249623 45.7969467),alta
MILANO,MILANO,MI146.1429,"SCUOLE COMUNALI, DISMISSIONE SERBATOI INTERRATI","VIA ANTONIO STOPPANI, 1",serbatoi carburante per riscaldamento,9.21144734,45.47614149,POINT (9.21144734 45.47614149),alta
MILANO,PADERNO DUGNANO,MI166.0066,CANTIERE PA4 (SCUOLA MATERNA E MEDIA),VIA FEDERICO CHOPIN,n.d.,9.18801297,45.57107203,POINT (9.18801297 45.57107203),alta
BRESCIA,CALVAGESE DELLA RIVIERA,BS033.0002,NOVASFER,"VIA GALILEO GALILEI, 3",aree industriali in attività,10.4570948,45.53169269,POINT (10.4570948 45.53169269),bassa
MILANO,RHO,MI182.0069,PV SHELL 49.416,"VIA LAINATE, 70",impianti di stoccaggio o adduzione carburanti,9.03547084,45.53829295,POINT (9.03547084 45.53829295),alta
MONZA E DELLA BRIANZA,NOVA MILANESE,MI156.0003,Area di Via Croce Rossa,"VIA CROCE ROSSA ITALIANA, 6ANG.VIABELLINI6",aree industriali dismesse,9.20358105,45.58700902,POINT (9.20358105 45.58700902),alta
PAVIA,VOGHERA,PV182.0014,Ditta VIOLA SRL,"VIA PIACENZA, 7",aree industriali in attività,9.06417123,45.00075499,POINT (9.06417123 45.00075499),alta
MILANO,MILANO,MI146.0292,Area ex KELLER VERNICI,"VIA ALESSANDRO LITTA MODIGNANI, 8",aree industriali dismesse,9.1653995,45.52383205,POINT (9.1653995 45.52383205),alta
MILANO,BARANZATE,MI250.0046,SERBATOIO AREA MACINAZIONE MINERALI,"VIA STELLA ROSA, 53",n.d.,9.10078524,45.5324639,POINT (9.10078524 45.5324639),alta
VARESE,BUSTO ARSIZIO,VA026.0058,Area urbana in Via Espinasse,"VIA GENERALE CARLO ESPINASSE, 41",aree industriali dismesse,8.83710635,45.6074521,POINT (8.83710635 45.6074521),alta
MILANO,SAN GIULIANO MILANESE,MI195.0052,KLUBER LUBRICATION ITALIA S.A.S.,"VIA MONFERRATO, 57",aree industriali in attività,9.2580732,45.40074579,POINT (9.2580732 45.40074579),alta
VARESE,CISLAGO,VA050.0001,PUNTO VENDITA IP N. 6985,S.S.N 233 KM 26+795,impianti di stoccaggio o adduzione carburanti,8.96161255,45.64934593,POINT (8.96161255 45.64934593),bassa
MILANO,MILANO,MI146.1846,RESIDENZA MELOGRANO EX MERCATO COPERTO,VIE CONI ZUGNA/VIA FRA PACIOLI/VIALE PAPINIANO,altri siti non meglio specificati,9.16404549,45.46065614,POINT (9.16404549 45.46065614),alta
MILANO,MILANO,MI146.0848,AREA PIRELLI BICOCCA EX EDIFICIO 157,PIAZZA DEI DAINI,aree industriali dismesse,9.21131138,45.51578188,POINT (9.21131138 45.51578188),alta
VARESE,MARNATE,VA098.0008,Area ex SANITARIA CESCHINA,"VIA LAZZARETTO, 1",aree industriali dismesse,8.89575583,45.63500166,POINT (8.89575583 45.63500166),alta
COMO,COMO,CO075.0037,Area Ex PRINTED,VIA ANTONIO MAGNI,aree industriali dismesse,9.07040247,45.78363841,POINT (9.07040247 45.78363841),alta
MILANO,PESCHIERA BORROMEO,MI171.0017,AEROPORTO LINATE SITO RAM3,LOCALITA' AEROPORTO DI MILANO LINATE SNC,aree industriali in attività,9.27207334,45.44535786,POINT (9.27207334 45.44535786),alta
BERGAMO,BOLTIERE,BG029.0001,Area ex-HYDROFIT - Soc. Manuli Rubber s.p.a.,"VIALE MONTE GRAPPA, 40",aree industriali dismesse,9.57635649,45.59630311,POINT (9.57635649 45.59630311),alta
MONZA E DELLA BRIANZA,SULBIATE,MI217.0001,Sversamento olio isolante,VIA PER RUGINELLO,aree industriali in attività,9.4258792,45.63367286,POINT (9.4258792 45.63367286),bassa
MILANO,MILANO,MI146.2686,AREA VIA SAVONA,"VIA SAVONA, 25",aree industriali dismesse,9.16623684,45.45488938,POINT (9.16623684 45.45488938),alta
MILANO,MILANO,MI146.3825,AREA IMMOBILIARE DOMINA SRL,"VIA GIACOMO WATT, 6",aree industriali dismesse,9.15417948,45.44438233,POINT (9.15417948 45.44438233),alta
MILANO,DRESANO,MI101.0004,PROCOM FERTIL PETROLDRAGON,N.D.,n.d.,9.36453409,45.37602233,POINT (9.36453409 45.37602233),bassa
MILANO,MILANO,MI146.2956,"AREA ""EX MONTINI PRODOTTI TESSILI""","VIA FRANCESCO CARACCIOLO, 94",aree industriali dismesse,9.16472815,45.4933692,POINT (9.16472815 45.4933692),alta
MILANO,CINISELLO BALSAMO,MI077.0106,EX SITO ATLAS COPCO,"VIA FRATELLI GRACCHI, 3939",aree industriali dismesse,9.2439528,45.5509028,POINT (9.2439528 45.5509028),alta
MILANO,VANZAGO,MI229.0001,IMMOBILIARE MARINELLA S.r.l.,"VIA MONASTEROLO, 16",aree industriali dismesse,8.98857075,45.52514829,POINT (8.98857075 45.52514829),alta
MILANO,LEGNANO,MI118.0058,Area dismessa EX GALVANICA FURLAN,"VIA ALESSANDRO MANZONI, 43",n.d.,8.91860731,45.60239077,POINT (8.91860731 45.60239077),alta
LECCO,CIVATE,LC022.0004,"EX AMBITO PRODUTTIVO, PROPRIETÀ AIROLDI SPA","VIA PROVINCIALE, 29/33",altri siti non meglio specificati,9.35187961,45.8295841,POINT (9.35187961 45.8295841),alta
BERGAMO,BERGAMO,BG024.0044,CASERMA LIGOBBI,"VIA GIANFORTE SUARDI, 30",altri siti non meglio specificati,9.68376377,45.7038555,POINT (9.68376377 45.7038555),alta
MILANO,MILANO,MI146.0209,FINA - PRU PALIZZI,VIA PORRETTA,discariche abusive o incontrollate,9.14862318,45.50854141,POINT (9.14862318 45.50854141),alta
MILANO,MILANO,MI146.0005,ALFA MACERI,"VIA CARLO DE CRISTOFORIS, 7",aree industriali dismesse,9.1889941,45.48179984,POINT (9.1889941 45.48179984),alta
MILANO,MILANO,MI146.0394,EX LA BIGIOTTERIA,"VIA CARLO D' ADDA, 9",aree industriali dismesse,9.16092856,45.44718601,POINT (9.16092856 45.44718601),alta
BRESCIA,TRAVAGLIATO,BS188.0001,"Cava Macogna, CON CAZZAGO SAN MARTINO",STRADA VICINALE DEL FOSSATO,operazioni di recupero rifiuti,10.0632388,45.51437605,POINT (10.0632388 45.51437605),alta
MILANO,MILANO,MI146.4010,G&B IMMOBILIARE S.R.L.,"VIALE UMBRIA, 128",aree industriali dismesse,9.21812261,45.46091444,POINT (9.21812261 45.46091444),alta
MILANO,TRIBIANO,MI222.0009,Stabilimento CTN,--,rilasci accidentali o dolosi di sostanze,9.37287055,45.40287815,POINT (9.37287055 45.40287815),bassa
MILANO,SEGRATE,MI205.0025,Stabilimento Johnson Matthey Italia S.p.a.,"VIA GUGLIELMO MARCONI, 3",n.d.,9.27781503,45.49434114,POINT (9.27781503 45.49434114),alta
MILANO,MILANO,MI146.4127,AREA BUILDING S.R.L.,"VIA COL MOSCHIN, 8",aree industriali dismesse,9.18499172,45.45116111,POINT (9.18499172 45.45116111),alta
MILANO,MILANO,MI146.4113,EX PV ESSO,"VIA MONTE ROSA, 66",impianti di stoccaggio o adduzione carburanti,9.14672892,45.47690892,POINT (9.14672892 45.47690892),alta
MILANO,SAN GIULIANO MILANESE,MI195.0072,AREA EX BULL,"VIA DEL PARLAMENTO, 33",n.d.,9.2706271,45.40613575,POINT (9.2706271 45.40613575),alta
MILANO,MILANO,MI146.2573,AREA INDUSTRIALE DISMESSA,"VIA MICHELE PERICLE NEGROTTO, 31/8C",aree industriali dismesse,9.14724037,45.50384156,POINT (9.14724037 45.50384156),alta
MILANO,MILANO,MI146.3954,AREA QUADRIO 9,"VIA MAURIZIO QUADRIO, 9",aree industriali dismesse,9.18482941,45.48383414,POINT (9.18482941 45.48383414),alta
MILANO,MILANO,MI146.2663,PIRELLI BICOCCA P.ZZA DAINI - GIARDINO,PIAZZA DEI DAINI,aree industriali dismesse,9.21131138,45.51578188,POINT (9.21131138 45.51578188),alta
COMO,BIZZARONE,CO024.0001,P.I.I ARRIGONI 1,VIA GIACOMO MATTEOTTI,aree industriali dismesse,8.94291055,45.83463175,POINT (8.94291055 45.83463175),alta
MONZA E DELLA BRIANZA,MONZA,MB033.0051,TESSITURA,"VIA FEDERICO CONFALONIERI, 3",aree industriali dismesse,9.29179841,45.59245011,POINT (9.29179841 45.59245011),alta
MILANO,NOVATE MILANESE,MI157.0027,Area ex Florovivaista Nava,"VIA BOLLATE, 57",n.d.,9.13208522,45.53678674,POINT (9.13208522 45.53678674),alta
MILANO,MILANO,MI146.3103,AREA A2A,"VIA CHIESE, 57",aree industriali dismesse,9.21370224,45.52133299,POINT (9.21370224 45.52133299),alta
COMO,COMO,CO075.0022,P.V. AGIP 1921,PIAZZALE ANNA FRANK-LOCALITA' PONTE CHIASSO,impianti di stoccaggio o adduzione carburanti,9.03823771,45.83074882,POINT (9.03823771 45.83074882),alta
MONZA E DELLA BRIANZA,LISSONE,MI123.0020,AREA DI VIA VESPUCCI,"VIA AMERIGO VESPUCCI, 11",aree industriali in attività,9.23955619,45.61709147,POINT (9.23955619 45.61709147),alta
MILANO,ARLUNO,MI010.0039,INDUSTRIE REBORA S.R.L.,"VIA DON LUIGI STURZO, 13",aree industriali in attività,8.93972679,45.49165327,POINT (8.93972679 45.49165327),alta
MILANO,MILANO,MI146.2594,AREA DISMESSA VIA BRUNI (Monomilano),"VIA LEONARDO BRUNI, 10",aree industriali dismesse,9.17484451,45.50038747,POINT (9.17484451 45.50038747),alta
VARESE,GERENZANO,VA075.0006,DITTA ALBERTI LUIGI & C. SAS,"VIALE RISORGIMENTO, 26",impianti di stoccaggio o adduzione carburanti,8.99557504,45.64294625,POINT (8.99557504 45.64294625),alta
VARESE,ALBIZZATE,VA002.0001,AREA INDUSTRIALE DISMESSA EX PIOTTI,VIA SANT' ALESSANDRO,aree industriali dismesse,8.80329418,45.7232737,POINT (8.80329418 45.7232737),alta
MONZA E DELLA BRIANZA,DESIO,MB023.0005,AREA DGV S.R.L.,N.D.,aree agricole oggetto di spandimento incontrollato,9.20487205,45.59673963,POINT (9.20487205 45.59673963),bassa
MILANO,MILANO,MI146.3460,PV CARBURANTI KEROPETROL,PIAZZA OVIDIO ANGOLO VIA SALOMONE,impianti di stoccaggio o adduzione carburanti,9.2404077,45.45772571,POINT (9.2404077 45.45772571),alta
MILANO,SESTO SAN GIOVANNI,MI209.0149,AREA EX MIXERS GABBIONETA S.P.A.,"VIALE FRATELLI CASIRAGHI, 68",aree industriali dismesse,9.2321274,45.53676853,POINT (9.2321274 45.53676853),alta
LECCO,LECCO,LC042.0047,C.I.M.E.L. - PORZIONE DI AREA IN USO ANGHILERI GIANCARLO,"VIA FRATELLI TICOZZI, 31",altri siti non meglio specificati,9.42603154,45.84907468,POINT (9.42603154 45.84907468),bassa
MILANO,PIOLTELLO,MI175.0045,EX Strutture ONLUS,"VIA ANTONIO ALLEGRI DA CORREGGIO, 10/12",aree industriali dismesse,9.33154277,45.51262858,POINT (9.33154277 45.51262858),alta
MONZA E DELLA BRIANZA,CESANO MADERNO,MI075.0017,Area ex P.V. IP,"CORSO ROMA, 67",impianti di stoccaggio o adduzione carburanti,9.1442025,45.62318625,POINT (9.1442025 45.62318625),alta
BERGAMO,BERGAMO,BG024.0105,WORK IN PROGRESS,"VIA VITTORE GHISLANDI, 18",aree industriali dismesse,9.68501581,45.69857414,POINT (9.68501581 45.69857414),alta
MILANO,SAN GIULIANO MILANESE,MI195.0018,CASCINA SELMO - LOTTO F,LOCALITA' VIBOLDONE,n.d.,9.2780372,45.3838531,POINT (9.2780372 45.3838531),bassa
MILANO,MILANO,MI146.3383,AREA DI VIA TITO VIGNOLI,"VIA TITO VIGNOLI, 5",aree industriali dismesse,9.14901037,45.44987287,POINT (9.14901037 45.44987287),alta
MILANO,MILANO,MI146.2107,Area di Via Barona,"VIA BARONA, 41/43",aree industriali dismesse,9.15130414,45.43444953,POINT (9.15130414 45.43444953),alta
MILANO,MORIMONDO,MI150.0004,AREA SVERSAMENTO OLEODOTTO 8 ENI DIV. R&M - ex-SOC. PRAOIL,CASCINA LASSO,impianti di stoccaggio o adduzione carburanti,8.95467795,45.34977915,POINT (8.95467795 45.34977915),bassa
VARESE,LONATE POZZOLO,VA090.0002,"Impresa Cavalleri, sversamento località Malpensa-Cargo City",TERMINAL 1-AEROPORTO DELLA MALPENSA,altri siti non meglio specificati,8.74038605,45.58717662,POINT (8.74038605 45.58717662),bassa
VARESE,BARDELLO,VA009.0001,NELSA S.R.L.,"VIA GUGLIELMO MARCONI, 10",impianti di stoccaggio o adduzione carburanti,8.70049616,45.83761431,POINT (8.70049616 45.83761431),alta
MILANO,MILANO,MI146.1803,Area Via San Mamete,VIA SAN MAMETE,n.d.,9.24703203,45.51067249,POINT (9.24703203 45.51067249),alta
MILANO,MILANO,MI146.4046,EX OMMI,"VIALE FAMAGOSTA, 10",aree industriali dismesse,9.15752969,45.43698402,POINT (9.15752969 45.43698402),alta
MILANO,MILANO,MI146.3125,AREA VIA DEMOSTENE,"VIA DEMOSTENE, 10",altri siti non meglio specificati,9.22596575,45.50662985,POINT (9.22596575 45.50662985),alta
BERGAMO,BERGAMO,BG024.0050,VANONCINI S.P.A.,"VIA AMBROGIO DA CALEPIO, 12",n.d.,9.6832555,45.69757892,POINT (9.6832555 45.69757892),alta
MILANO,MILANO,MI146.1950,AREA SERBATOIO C/O STABILE,"VIA IPPODROMO, 134",impianti di stoccaggio o adduzione carburanti,9.11411756,45.48426654,POINT (9.11411756 45.48426654),alta
MILANO,SAN DONATO MILANESE,MI192.0029,Area Ex Centro Grafico Ambrosiano,"VIA XXV APRILE, 5",aree industriali dismesse,9.26759595,45.43384958,POINT (9.26759595 45.43384958),alta
MILANO,CARPIANO,MI050.0008,AREA RIZZI LUIGI E FIGLI,LOCALITA' DRAGHETTO,n.d.,9.2733005,45.34550468,POINT (9.2733005 45.34550468),bassa
BRESCIA,PALAZZOLO SULL OGLIO,BS133.0007,CIMITERO,N.D.,n.d.,9.89226995,45.58306432,POINT (9.89226995 45.58306432),bassa
CREMONA,CREMONA,CR036.0105,IMPRESA CONTARDI S.R.L.,VIA DEL MACELLO,aree industriali dismesse,10.03740445,45.1404719,POINT (10.03740445 45.1404719),alta
MILANO,MILANO,MI146.4063,"AREA VIA FORNARI, 6 - EX CARROZZERIA PARENTI","VIA PASQUALE FORNARI, 6",aree industriali dismesse,9.14330355,45.46433591,POINT (9.14330355 45.46433591),alta
BERGAMO,CAROBBIO DEGLI ANGELI,BG055.0002,Ditta Calegari SAV,N.D.,aree industriali in attività,9.8493358,45.66724381,POINT (9.8493358 45.66724381),bassa
MILANO,MILANO,MI146.0521,AMSA SPA,"VIA ZAMA, 31/33",aree industriali dismesse,9.2353837,45.447255,POINT (9.2353837 45.447255),alta
MILANO,MILANO,MI146.2753,AREA EX ENEL,"VIA GIULIO CESARE PROCACCINI, 1-3",n.d.,9.17675171,45.48405097,POINT (9.17675171 45.48405097),alta
MILANO,COLOGNO MONZESE,MI081.0026,"Area Ex Miotto, PII n.13 (CIS 5)",VIALE LOMBARDIA,aree industriali in attività,9.2748126,45.5349547,POINT (9.2748126 45.5349547),alta
MILANO,MILANO,MI146.2273,Centro distribuzione merci LA GENERALE,"VIA ENRICO ANNIBALE BUTTI, 15",aree industriali in attività,9.17451989,45.49785196,POINT (9.17451989 45.49785196),alta
BERGAMO,BERGAMO,BG024.0015,"AREA EX FAGNANI , IMMOBILIARE 3000","VIA LUIGI PELANDI, 11",aree industriali dismesse,9.69006581,45.69338939,POINT (9.69006581 45.69338939),alta
MILANO,NERVIANO,MI154.0014,"Area Europe Service S.r.l., Piano di lottizzazione residenze al parco",VIALE GIOVANNI XXIII,altri siti non meglio specificati,8.98294965,45.55142191,POINT (8.98294965 45.55142191),alta
VARESE,VARESE,VA133.0012,Area Autotrasporti Varesini,"VIALE LUIGI BORRI, 209",impianti di stoccaggio o adduzione carburanti,8.84539755,45.7952667,POINT (8.84539755 45.7952667),alta
PAVIA,TROMELLO,PV164.0004,SVERSAMENTO ACCIDENTALE OLIO COMBUSTIBILE A SEGUITO INCIDENTE OCCORSO IN DATA 03/08/2005,STRADA PER GAMBOLO',rilasci accidentali o dolosi di sostanze,8.87300239,45.21298147,POINT (8.87300239 45.21298147),alta
MILANO,ASSAGO,MI011.0005,Area Ex GPP di Via Fermi,"VIA ENRICO FERMI, 20",aree industriali in attività,9.1251715,45.40347215,POINT (9.1251715 45.40347215),alta
MILANO,PIOLTELLO,MI175.0007,AREA SIRAI - LOTTO B - SOCIETA' EDILGA SRL,"VIA TOMMASO MASACCIO, 6",aree industriali dismesse,9.3305756,45.50981828,POINT (9.3305756 45.50981828),alta
MILANO,MILANO,MI146.2851,AREA VIA BRUZZESI ANGOLO GIAMBELLINO,"VIA GIACINTO BRUZZESI, 36",aree industriali dismesse,9.14634566,45.44980847,POINT (9.14634566 45.44980847),alta
MILANO,SETTIMO MILANESE,MI211.0031,3T SRL,"VIA GIACOMO LEOPARDI, 10ANGOLOMANZONI10",n.d.,9.05845714,45.48611229,POINT (9.05845714 45.48611229),alta
MILANO,VILLA CORTESE,MI248.0004,AREA EX PENTAVIL,"VIA ALCIDE DE GASPERI, 38",aree industriali dismesse,8.88044193,45.57051447,POINT (8.88044193 45.57051447),alta
BRESCIA,CALCINATO,BS032.0005,CAPANNONE IN LOC.PONTE SAN MARCO,"VIA COMMERCIO, 8",aree industriali in attività,10.38454079,45.47941949,POINT (10.38454079 45.47941949),alta
MILANO,PARABIAGO,MI168.0044,EX TINTOTEX,"VIA ISONZO, 4",aree industriali dismesse,8.95499475,45.54612745,POINT (8.95499475 45.54612745),alta
MILANO,MILANO,MI146.4152,AREA EX FIERA MILANO CITY LIFE - Lotto RA,LARGO DOMODOSSOLA,n.d.,9.15994258,45.48029213,POINT (9.15994258 45.48029213),alta
MILANO,MILANO,MI146.2349,AREA VIA RUTILIA,"VIA RUTILIA, 15",aree industriali dismesse,9.19761712,45.4401267,POINT (9.19761712 45.4401267),alta
MILANO,COLOGNO MONZESE,MI081.0012,AREA CIS 1R.F. CELADA SPA - C.I.D.A. SPA - COOPERATIVA ABITAZIONE MALNIDO SRL,VIA CESARE BATTISTI,aree agricole oggetto di spandimento incontrollato,9.26704279,45.54821076,POINT (9.26704279 45.54821076),alta
PAVIA,VIGEVANO,PV177.0014,Ex Cartiera Crespi,VIA MONTE OLIVETO,aree industriali dismesse,8.86933599,45.33726349,POINT (8.86933599 45.33726349),alta
MILANO,GAGGIANO,MI103.0004,Consorzio Agrario di Milano e Lodi,VIA GUGLIELMO MARCONI,aree industriali dismesse,9.03276005,45.40711774,POINT (9.03276005 45.40711774),alta
PAVIA,CASORATE PRIMO,PV034.0001,"Area ""Ex Omino di Ferro""","VIA CAPO DI VICO, 19",aree industriali dismesse,9.01549286,45.31365152,POINT (9.01549286 45.31365152),alta
COMO,ROVELLASCA,CO201.0001,GABEL INDUSTRIA TESSILE SPA,"VIA XX SETTEMBRE, 35",rilasci accidentali o dolosi di sostanze,9.0410392,45.6657135,POINT (9.0410392 45.6657135),alta
LODI,SENNA LODIGIANA,LO053.0001,AZ.AGRICOLA BELLAGUARDA,LOCALITA' CASCINA BELLAGUARDA,aree agricole oggetto di spandimento incontrollato,9.59436689,45.12919663,POINT (9.59436689 45.12919663),bassa
MILANO,ROZZANO,MI189.0084,INCENDIO AUTOVEICOLI IN AREA CONDOMINIALE,"VIA GUIDO ROSSA, 5-5/A",altri siti non meglio specificati,9.1504846,45.37717054,POINT (9.1504846 45.37717054),alta
BERGAMO,SCHILPARIO,BG195.0001,PALO ENEL LOC. PRADELLA,FRAZIONE PRADELLA,altri siti non meglio specificati,10.13105223,46.00268645,POINT (10.13105223 46.00268645),alta
MILANO,SAN GIULIANO MILANESE,MI195.0021,Ex Eurocircuiti,"VIA CAMILLO BENSO CONTE DI CAVOUR, 44",n.d.,9.28310444,45.4009391,POINT (9.28310444 45.4009391),alta
VARESE,FERNO,VA068.0001,CENTRO DI RACCOLTA RIFIUTI,VIA MARCO POLO,impianti di stoccaggio rifiuti,8.7562171,45.61084599,POINT (8.7562171 45.61084599),alta
MILANO,MILANO,MI146.2476,AREA PROGETTO Via TOBAGI,"VIA WALTER TOBAGI, 4/1",aree industriali dismesse,9.14858123,45.44075547,POINT (9.14858123 45.44075547),alta
VARESE,BUSTO ARSIZIO,VA026.0117,LICEO ARTISTICO - fuoriuscita di residui oleosi da cisterna,PIAZZA TRENTO E TRIESTE,rilasci accidentali o dolosi di sostanze,8.8545272,45.61083619,POINT (8.8545272 45.61083619),alta
MILANO,ROZZANO,MI189.0022,LA FILANDA srl,"VIA PAVESE, 1/3",aree industriali dismesse,9.14442873,45.382374,POINT (9.14442873 45.382374),alta
MILANO,MILANO,MI146.2100,AREA EUROMILANO LOCALITA CASCINA MERLATA VIA GALLARATE 410,"VIA GALLARATE, 410",impianti di stoccaggio o adduzione carburanti,9.10469774,45.50509915,POINT (9.10469774 45.50509915),alta
MONZA E DELLA BRIANZA,NOVA MILANESE,MI156.0009,AREA EX TESSITURA MONTANARI,"VIA ANTONIO LOCATELLI, 25",aree industriali dismesse,9.19107025,45.59319075,POINT (9.19107025 45.59319075),alta
MILANO,BOFFALORA SOPRA TICINO,MI026.0003,IVES IMPIANTI,VIA MAGENTA,n.d.,8.83355596,45.46612957,POINT (8.83355596 45.46612957),alta
MILANO,MILANO,MI146.2447,Area di Via E. Cantoni,"VIA ERMENEGILDO CANTONI, 5",n.d.,9.13486932,45.50570304,POINT (9.13486932 45.50570304),alta
MILANO,BUCCINASCO,MI036.0014,EX KLEM PURFUMUS- EX PAGANI E CITTADIN -EX TRASPEDIM,"VIA VOLTURNO, 2",aree industriali dismesse,9.1121489,45.42373543,POINT (9.1121489 45.42373543),alta
MILANO,LEGNANO,MI118.0043,Area Ex ILC,VIA S.MARTINO/P.MICCA,aree industriali dismesse,8.9130345,45.60156121,POINT (8.9130345 45.60156121),alta
MILANO,MILANO,MI146.3333,MAS METAL SRL,"VIA ANDREA CESALPINO, 49",operazioni di recupero rifiuti,9.23117092,45.50724593,POINT (9.23117092 45.50724593),alta
PAVIA,FILIGHERA,PV063.0001,SVERSAMENTO GASOLIO DA INCIDENTE DEL 29/11/2016 PER RIBALTAMENTO CAMION,S.P.31,rilasci accidentali o dolosi di sostanze,9.31714605,45.17935379,POINT (9.31714605 45.17935379),bassa
MILANO,MILANO,MI146.0071,KSB Italia Spa-SOCIETA' ALDEBERAN S.R.L.,"VIA BERNARDO RUCELLAI, 36-37",aree industriali dismesse,9.21850338,45.5115776,POINT (9.21850338 45.5115776),alta
MILANO,CINISELLO BALSAMO,MI077.0042,AREA SITA IN VIA PALESTRO,"VIA PALESTRO, 15",aree industriali dismesse,9.2253067,45.5509121,POINT (9.2253067 45.5509121),alta
MILANO,CORMANO,MI086.0017,Area ex Officine Standard,"VIA GALILEO GALILEI, 31/33",aree industriali dismesse,9.17241584,45.54844356,POINT (9.17241584 45.54844356),alta
MILANO,INVERUNO,MI113.0005,EX AREA LAGUNAGGIO,CORSO ITALI (STRADA PER MESERO),aree industriali in attività,8.86032965,45.51436019,POINT (8.86032965 45.51436019),alta
BERGAMO,TREVIGLIO,BG219.0012,"Ex postazione Agip Malossa ""B""",N.D.,impianti di stoccaggio o adduzione carburanti,9.59082779,45.53166744,POINT (9.59082779 45.53166744),bassa
COMO,GRIANTE,CO113.0001,AREA DISMESSA CARROZZERIA/AUTORIMESSA,S.S.REGINA 49/A,altri siti non meglio specificati,9.2390093,45.99495084,POINT (9.2390093 45.99495084),bassa
MILANO,RHO,MI182.0038,SOCIETA' CENTRO COMMERCIALE RHODENSE SRL,VIA BORROMEO,aree industriali dismesse,9.0664458,45.52641504,POINT (9.0664458 45.52641504),alta
MILANO,MILANO,MI146.2404,AREA LOC. CASCINA MERLATA VIA DAIMLER (EX GALLARATE 410),VIA DAIMLER (EX GALLARATE 410),aree industriali dismesse,9.14435084,45.49296856,POINT (9.14435084 45.49296856),alta
MILANO,MILANO,MI146.2259,Area dismessa Via Pitteri 89,"VIA RICCARDO PITTERI, 89",aree industriali dismesse,9.24631188,45.47861824,POINT (9.24631188 45.47861824),alta
MONZA E DELLA BRIANZA,MONZA,MI149.0003,ESSO PV N. 0002,"VIALE LOMBARDIA, 12",rilasci accidentali o dolosi di sostanze,9.25301956,45.58893571,POINT (9.25301956 45.58893571),alta
MILANO,MILANO,MI146.3836,VIABILITÀ ESTERNA EXPO-VIADOTTO RFI - EX CAVA TRIBONIANO,VIA TRIBONIANO,discariche abusive o incontrollate,9.12303641,45.50886241,POINT (9.12303641 45.50886241),alta
MILANO,MILANO,MI146.3026,AREA DI VIA GIUDICE DONADONI,VIA DONADONI 6,altri siti non meglio specificati,9.16157189,45.50373444,POINT (9.16157189 45.50373444),alta
VARESE,SAMARATE,VA118.0011,"EX LAMEF, NEW SYSTEM S.N.C.",BELLINI AGUSTA,n.d.,8.7784518,45.62729604,POINT (8.7784518 45.62729604),alta
VARESE,CAVARIA CON PREMEZZO,VA048.0001,Ex Fonderia Filiberti,N.D.,aree industriali dismesse,8.7970037,45.69381693,POINT (8.7970037 45.69381693),bassa
MILANO,RHO,MI182.0053,AREA EX DIANA,"VIA CASTELLI FIORENZA, 33/37",aree industriali dismesse,9.04564734,45.5273193,POINT (9.04564734 45.5273193),alta
MILANO,MILANO,MI146.0114,"Area ""ex MOTTA""","VIA LUISA BATTISTOTTI SASSI, 11",aree industriali dismesse,9.2277852,45.46281065,POINT (9.2277852 45.46281065),alta
COMO,MOLTRASIO,CO152.0001,Sversamento gasolio presso area parcheggio,VIA ANTONIO DURINI,rilasci accidentali o dolosi di sostanze,9.10054653,45.86042637,POINT (9.10054653 45.86042637),alta
MILANO,MILANO,MI146.1168,AREA EX INCAB,VIE BOLLA/CASTELLANZA/PARABIAGO,aree industriali dismesse,9.11140341,45.5032104,POINT (9.11140341 45.5032104),alta
MILANO,TREZZANO SUL NAVIGLIO,MI220.0006,PERGOLA 96 S.r.l.,VIA CURIEL ANG.VIA EDISON 19,aree industriali dismesse,9.06617193,45.42187889,POINT (9.06617193 45.42187889),alta
VARESE,CASORATE SEMPIONE,VA039.0003,AEREOPORTO MALPENSA- AREA RAM C - Area dismessa,STRADA STATALE DELL' AEROPORTO DELLA MALPENSA,impianti di stoccaggio o adduzione carburanti,8.74492685,45.66631649,POINT (8.74492685 45.66631649),bassa
MONZA E DELLA BRIANZA,CERIANO LAGHETTO,MI069.0001,"SNIA S.P.A., RHODIA ENGINEERING PLASTICS S.R.L., CAFFARO FLEXIBILE PACKAGING S.P.A., CON SOLARO","VIA I MAGGIO, 80",aree industriali in attività,9.08026279,45.62491345,POINT (9.08026279 45.62491345),alta
BRESCIA,CHIARI,BS052.0008,EX GASOMETRO DI CHIARI(BRUMAN'S),VIA FORNACI,aree industriali dismesse,9.94394745,45.54028788,POINT (9.94394745 45.54028788),alta
MILANO,MILANO,MI146.3046,AREA VIA PEZZOTTI,"VIA GIOVANNI PEZZOTTI, 6",n.d.,9.18289301,45.44305703,POINT (9.18289301 45.44305703),alta
MILANO,MILANO,MI146.0538,P.V. Tamoil 6273,"BASTIONI DI PORTA VOLTA, 2",impianti di stoccaggio o adduzione carburanti,9.1821693,45.48110718,POINT (9.1821693 45.48110718),alta
MILANO,MILANO,MI146.0886,Area ex Cartiere Saffa,"VIA DEI MISSAGLIA, 89",aree industriali dismesse,9.17523845,45.4138496,POINT (9.17523845 45.4138496),alta
MILANO,MILANO,MI146.0137,"AREA ex SGEA, BOCCONI",VIALE BLIGNY ANGOLO RONTGEN 10,altri siti non meglio specificati,9.18766653,45.45158442,POINT (9.18766653 45.45158442),alta
VARESE,SARONNO,VA119.0022,AREA VIA ROMA,"VIA ROMA, 58",aree industriali dismesse,9.0428501,45.62477116,POINT (9.0428501 45.62477116),alta
SONDRIO,BIANZONE,SO008.0001,Area industriale dismessa,"VIA COLOMBINI, 25/A25/A",aree industriali dismesse,10.12208784,46.18820303,POINT (10.12208784 46.18820303),alta
MILANO,ALBAIRATE,MI005.0002,PUNTO VENDITA API,STRADA STATALE 494 VIGEVANESE,impianti di stoccaggio o adduzione carburanti,8.96617388,45.40217202,POINT (8.96617388 45.40217202),alta
LECCO,SUELLO,LC078.0003,AREA INDUSTRIALE,"VIA PROVINCIALE, 31",aree industriali in attività,9.31329544,45.81987892,POINT (9.31329544 45.81987892),alta
BRESCIA,BRESCIA,BS029.0012,AREA EX ABIP SPA,VIA PIEMONTE,aree industriali dismesse,10.2025956,45.53246315,POINT (10.2025956 45.53246315),alta
MILANO,MILANO,MI146.3598,ex ditta Orru,"VIA TRIBONIANO, 141",n.d.,9.11363831,45.51184038,POINT (9.11363831 45.51184038),alta
VARESE,BUSTO ARSIZIO,VA026.0016,"Area Immobiliarea Atlantic, ex Tintoria Garavaglia","VIALE LOMBARDIA, 29",aree industriali dismesse,8.86516885,45.60995015,POINT (8.86516885 45.60995015),alta
MILANO,SAN GIULIANO MILANESE,MI195.0085,OLEODOTTO FERRERA - CREMONA,VIA MARIGNANO,n.d.,9.26584097,45.39393816,POINT (9.26584097 45.39393816),alta
MILANO,LAINATE,MI116.0015,EX TRAFILERIE DI LAINATE,"VIA ALESSANDRO MANZONI, 39",aree industriali dismesse,9.03075037,45.56524816,POINT (9.03075037 45.56524816),alta
MILANO,MILANO,MI146.0039,OFFICINE METALLURGICHE BROGGI S.p.A.,"VIA RAFFAELE LAMBRUSCHINI, 4",aree industriali dismesse,9.15644321,45.50256045,POINT (9.15644321 45.50256045),alta
MILANO,ARLUNO,MI010.0005,AUTOSTRADA MI/TO - SVERSAMENTO ACCIDENTALE,AUTOSTRADA TORINO - MILANO,rilasci accidentali o dolosi di sostanze,8.93727977,45.50051819,POINT (8.93727977 45.50051819),alta
MILANO,PIOLTELLO,MI175.0021,ENEL CASCINA ARZONA,LOCALITA' CASCINA ARZONA,n.d.,9.30612662,45.50071186,POINT (9.30612662 45.50071186),alta
MILANO,BUSTO GAROLFO,MI041.0027,ditta Sacagica S.r.l.,"VIA FILIPPO CORRIDONI, 56",n.d.,8.89685588,45.54533675,POINT (8.89685588 45.54533675),alta
MILANO,MAGENTA,MI130.0002,A.T.M. SPA DEPOSITO DI MAGENTA,VIA MILANO,n.d.,8.89252799,45.46738743,POINT (8.89252799 45.46738743),alta
MILANO,SAN GIORGIO SU LEGNANO,MI194.0007,PV AGIP 52015,VIA XX SETTEMBRE,impianti di stoccaggio o adduzione carburanti,8.91385023,45.58056009,POINT (8.91385023 45.58056009),alta
MILANO,MILANO,MI146.2651,AREA DI VIA VIPACCO,"VIA VIPACCO, 38",aree industriali dismesse,9.22146882,45.51798765,POINT (9.22146882 45.51798765),alta
MONZA E DELLA BRIANZA,LISSONE,MI123.0005,IMMOBILIARE CRISTINA SRL (EX FRATELLI LAMBRUGHI),"VIA ALESSANDRO VOLTA, 30",aree industriali dismesse,9.23735254,45.60934038,POINT (9.23735254 45.60934038),alta
VARESE,ARSAGO SEPRIO,VA005.0001,AREA DI SERVIZIO VERBANO OVEST - TOTAL,AUTOSTRADA A8/A26 RACCORDO GALLARATE-GATTICO,impianti di stoccaggio o adduzione carburanti,8.73601985,45.69636701,POINT (8.73601985 45.69636701),bassa
MILANO,MILANO,MI146.0654,Area industriale dismessa,"VIALE FULVIO TESTI, 326",aree industriali dismesse,9.21386636,45.52914924,POINT (9.21386636 45.52914924),alta
MILANO,MILANO,MI146.3368,ALTRA SEDE REGIONE LOMBARDIA LOTTO C3,LARGO DE BENEDETTI/VIA SASSETTI/VIA DE CASTILLIA,n.d.,9.19428665,45.48582413,POINT (9.19428665 45.48582413),alta
BRESCIA,CASTEGNATO,BS040.0016,EX GHIAL SPA,"VIA FRANCESCO FRANCHI, 120/138",aree industriali dismesse,10.11130339,45.55567313,POINT (10.11130339 45.55567313),alta
BERGAMO,BERGAMO,BG024.0030,EX ENEL,VIA FRANCESCO NULLO,aree industriali dismesse,9.65907591,45.69358489,POINT (9.65907591 45.69358489),alta
MILANO,MILANO,MI146.0977,Area Cascina Varesinetta,"VIA SAN GIUSEPPE COTTOLENGO, 36/38",altri siti non meglio specificati,9.1447301,45.440836,POINT (9.1447301 45.440836),alta
MILANO,MILANO,MI146.1857,POLO TERZIARIO AREA EX SITTAM,"VIA CESARE MUSATTI, 7",aree industriali dismesse,9.12393925,45.5123332,POINT (9.12393925 45.5123332),alta
MONZA E DELLA BRIANZA,AGRATE BRIANZA,MB001.0005,AZIENDA AGRICOLA CASCINA MOROSINA,VIA LECCO,n.d.,9.35583082,45.57217216,POINT (9.35583082 45.57217216),alta
VARESE,OLGIATE OLONA,VA108.0003,PUNTO VENDITA CARBURANTI Q8,"VIA PIAVE, 115",n.d.,8.86986855,45.62412495,POINT (8.86986855 45.62412495),alta
MILANO,MILANO,MI146.2415,EX FERRARIS,"VIA SEMPLICITA', 6",aree industriali dismesse,9.17825025,45.50817466,POINT (9.17825025 45.50817466),alta
MILANO,MOTTA VISCONTI,MI151.0001,Area depuratore comunale,LOCALITA' COSTA MAINA MOTTA,smaltimenti non autorizzati - abbandono rifiuti,8.98921899,45.28339701,POINT (8.98921899 45.28339701),bassa
LECCO,CREMELLA,LC028.0001,PV 6856,VIA LUIGI CADORNA,impianti di stoccaggio o adduzione carburanti,9.30990568,45.73785687,POINT (9.30990568 45.73785687),alta
MILANO,MELEGNANO,MI140.0009,ALTEA COSTRUZIONI S.r.l. (parte di ex sito industriale CHIMICA SARONIO),VIA DELLA REPUBBLICA-VIA PER CARPIANO,aree industriali dismesse,9.31665679,45.35451333,POINT (9.31665679 45.35451333),alta
MILANO,SAN DONATO MILANESE,MI192.0042,EX AGL,"VIA FEDERICO FELLINI, 4",aree industriali dismesse,9.26253427,45.41270296,POINT (9.26253427 45.41270296),alta
MILANO,MILANO,MI146.3116,AREA RECUPERI CUSTODE,"VIA STAMIRA D' ANCONA, 34",operazioni di recupero rifiuti,9.22895439,45.5022859,POINT (9.22895439 45.5022859),alta
BERGAMO,CALCIO,BG044.0002,AZIENDA AGRICOLA,VIA BELVEDERE 1,aree agricole oggetto di spandimento incontrollato,9.84531095,45.50224366,POINT (9.84531095 45.50224366),bassa
MILANO,MILANO,MI146.4002,AREA COMUNALE SITA IN VICOLO DE CASTILLIA N.4,"VICOLO GAETANO DE CASTILLIA, 4",aree industriali dismesse,9.19174379,45.48539405,POINT (9.19174379 45.48539405),alta
MILANO,MILANO,MI146.0204,Area dismessa R.O.M.A. Raffinerie,"VIALE GIOVANNI SUZZANI, 221/223",aree industriali dismesse,9.20440924,45.51821925,POINT (9.20440924 45.51821925),alta
BERGAMO,PEDRENGO,BG160.0002,Ditta Marchetti,"VIA BARTOLOMEO COLLEONI, 16",operazioni di recupero rifiuti,9.7420331,45.6889473,POINT (9.7420331 45.6889473),alta
SONDRIO,MELLO,SO041.0001,Strada Duign-Piazzo,LOCALITA' DUIGN PIAZZO,smaltimenti non autorizzati - abbandono rifiuti,9.54755923,46.15566206,POINT (9.54755923 46.15566206),alta
MILANO,BRESSO,MI032.0006,Area di Via Toselli,"VIA PIETRO TOSELLI, 61",aree industriali dismesse,9.18382055,45.54211805,POINT (9.18382055 45.54211805),alta
MILANO,MILANO,MI146.2537,VIA DELLA PERGOLA,"VIA ANGELO DELLA PERGOLA, 5",n.d.,9.18786152,45.48811995,POINT (9.18786152 45.48811995),alta
MILANO,MILANO,MI146.3811,AREA VIA TIBALDI 14 ( SUB 15),"VIALE TIBALDI, 14",aree industriali dismesse,9.17779854,45.44348908,POINT (9.17779854 45.44348908),alta
MILANO,MILANO,MI146.0308,EX MANIFATTURA TABACCHI,"VIALE FULVIO TESTI, 121",aree industriali dismesse,9.2052703,45.51515924,POINT (9.2052703 45.51515924),alta
BRESCIA,SAREZZO,BS174.0005,"P.V. 2597, TOTAL FINA ELF ITALIA SPA","VIA ANGELO ANTONINI, 8",impianti di stoccaggio o adduzione carburanti,10.20199581,45.64900368,POINT (10.20199581 45.64900368),alta
MILANO,CUSAGO,MI097.0003,Area Ex BF Prodotti Cosmetici S.r.l.,"VIA BAGGIO, 4/VIAIVNOVEMBRE",n.d.,9.0387706,45.44930912,POINT (9.0387706 45.44930912),alta
MILANO,PADERNO DUGNANO,MI166.0021,AREA EX REBUSCO,"VIA CARDINALE LUIGI RIBOLDI, 90",n.d.,9.1750329,45.5662469,POINT (9.1750329 45.5662469),alta
MILANO,MILANO,MI146.2694,AREA DI VIA SALA,"VIA LUIGI SALA, 12",aree industriali dismesse,9.16066235,45.44759333,POINT (9.16066235 45.44759333),alta
MILANO,MELZO,MI142.0025,evento accidentale:sversamento da olio contaminato da PCB,N.D.,n.d.,9.42379174,45.49865345,POINT (9.42379174 45.49865345),bassa
LECCO,CERNUSCO LOMBARDONE,LC020.0004,GASTRONOMICA FRESSCOTT,"VIA REGINA, 16",n.d.,9.39325696,45.68705798,POINT (9.39325696 45.68705798),alta
MILANO,MILANO,MI146.0801,STAZIONE DI SERVIZIO IP,"VIA LUIGI GALVANI, 34",impianti di stoccaggio o adduzione carburanti,9.19649731,45.48785376,POINT (9.19649731 45.48785376),alta
MILANO,SEDRIANO,MI204.0004,P.V. IP 2419,"VIA SAN MASSIMO, 27",n.d.,8.98642958,45.48610575,POINT (8.98642958 45.48610575),alta
BRESCIA,BORGOSATOLLO,BS021.0002,AREA INDUSTRIALE,"VIA PRADOSSI, 22",operazioni di recupero rifiuti,10.23697562,45.4712679,POINT (10.23697562 45.4712679),alta
MILANO,MILANO,MI146.3771,METROPOLITANA M4 - DEPOSITO SAN CRISTOFORO,VIA SAN CRISTOFORO,attività minerarie o estrattive,9.15495199,45.44807368,POINT (9.15495199 45.44807368),alta
VARESE,GORLA MAGGIORE,VA078.0001,AZIENDA AGRICOLA,VIA DELLAA CARNERA,altri siti non meglio specificati,8.90527214,45.66950959,POINT (8.90527214 45.66950959),alta
BRESCIA,MANERBIO,BS103.0003,"FINCHIMICA, impianto Pendimethalin","VIA LAZIO, 13",n.d.,10.1621767,45.36470304,POINT (10.1621767 45.36470304),alta
MONZA E DELLA BRIANZA,GIUSSANO,MI107.0001,AREA PARCHEGGIO ESTERNO SUD-OVEST DEL CENTRO COMMERCIALE CARREFOUR,VIA PREALPI (ANG.VIA PONCHIELLI),rilasci accidentali o dolosi di sostanze,9.22662575,45.69136439,POINT (9.22662575 45.69136439),alta
MILANO,VIGNATE,MI237.0001,ex BITUMOIL,STRADA ANTICA CASSANESE-(LOC.CASSINA DE PECCHI) 103,impianti di stoccaggio o adduzione carburanti,9.3477298,45.5030689,POINT (9.3477298 45.5030689),alta
MILANO,MILANO,MI146.4105,CASA DEI BAMBINI MONTESSORI,"VIA AROSIO, 3",n.d.,9.1249611,45.4735529,POINT (9.1249611 45.4735529),alta
BRESCIA,VEROLANUOVA,BS195.0001,PRO.DOMO SRL (AREA EX CONCERIA),N.D.,aree industriali dismesse,10.07724384,45.32692948,POINT (10.07724384 45.32692948),bassa
MILANO,PERO,MI170.0031,AREA EX IP DEIN,VIA MICHELANGELO BUONARROTI,impianti di stoccaggio o adduzione carburanti,9.08004538,45.50319454,POINT (9.08004538 45.50319454),alta
LECCO,OSNAGO,LC061.0007,AREA TRA VIA DELLE MARASCHE E XXV APRILE,VIA DELLE MARASCHE,altri siti non meglio specificati,9.39774996,45.67969408,POINT (9.39774996 45.67969408),alta
PAVIA,MORTARA,PV102.0010,Rotatoria incrocio SP 494/SP211 Cavo S. Espedito - sversamento,N.D.,rilasci accidentali o dolosi di sostanze,8.74384784,45.24712218,POINT (8.74384784 45.24712218),bassa
MILANO,RHO,MI182.0010,SOCIETA' CO.GIEMME SRL,"VIA PIAVE, 31",aree industriali dismesse,9.04737265,45.53228248,POINT (9.04737265 45.53228248),alta
MILANO,MILANO,MI146.3194,EX CABINA ELETTRICA A2A,"VIA PIETRO AZARIO, 1",aree industriali dismesse,9.16903696,45.45971832,POINT (9.16903696 45.45971832),alta
BERGAMO,CHIGNOLO D ISOLA,BG072.0001,AREA INDUSTRIALE,"VIA GUGLIELMO MARCONI, 12",aree industriali dismesse,9.52671283,45.67133003,POINT (9.52671283 45.67133003),alta
COMO,CERNOBBIO,CO065.0004,CERNOBBIO VILLA PIZZO SVERSAMENTO,"VIA REGINA, 46",rilasci accidentali o dolosi di sostanze,9.07666685,45.8413342,POINT (9.07666685 45.8413342),alta
MILANO,MILANO,MI146.2582,EX POMPE PERONI SPA,"VIA DELLE FORZE ARMATE, 310",aree industriali dismesse,9.10187204,45.45947315,POINT (9.10187204 45.45947315),alta
MILANO,SESTO SAN GIOVANNI,MI209.0115,EX ROTONOVA,"VIA GIUSEPPE DI VITTORIO, 307",n.d.,9.26116382,45.52739093,POINT (9.26116382 45.52739093),alta
BERGAMO,GRUMELLO DEL MONTE,BG120.0001,"Materiale di riporto del POLO SCOLASTICO ""DOTT. PAOLO RAVASIO""",VIA BELOTTI,altri siti non meglio specificati,9.87484694,45.63627733,POINT (9.87484694 45.63627733),alta
MILANO,SAN DONATO MILANESE,MI192.0005,PUNTO VENDITA AGIP N. 2290,TANGENZIALE EST-DIREZIONE BO-MI,impianti di stoccaggio o adduzione carburanti,9.25859719,45.41669251,POINT (9.25859719 45.41669251),bassa
MILANO,PESCHIERA BORROMEO,MI171.0003,CENTRALI PRODUTTORI LATTE LOMBARDIA S.P.A. - serbatoio,"VIA II GIUGNO, 15",aree industriali in attività,9.32393805,45.43349054,POINT (9.32393805 45.43349054),alta
SONDRIO,TEGLIO,SO065.0001,P.V. Q8,LOCALITA' TRESENDA,impianti di stoccaggio o adduzione carburanti,10.08585758,46.1631601,POINT (10.08585758 46.1631601),alta
VARESE,LONATE POZZOLO,VA090.0005,Ex Fonderia e Officina Meccanica Zaro-Cerutti S.a.s. di Zaro Franco & C.,"VIA ALESSANDRO MANZONI, 3",aree industriali dismesse,8.76100528,45.59444677,POINT (8.76100528 45.59444677),alta
MILANO,MILANO,MI146.0741,P.V. carburanti Automobile Club Milano,VIALE REGINA MARGHERITA ANG.PIAZZA CINQUE GIORNATE,impianti di stoccaggio o adduzione carburanti,9.20463427,45.4574522,POINT (9.20463427 45.4574522),alta
BRESCIA,PIAN CAMUNO,BS142.0001,"AREA ""PIALI""","VIA GIACOMO PUCCINI, 4",operazioni di recupero rifiuti,10.14792283,45.84901325,POINT (10.14792283 45.84901325),alta
MILANO,MILANO,MI146.1810,BORGO PORRETTA AREA DI VIA PORRETTA,VIA PORRETTA,altri siti non meglio specificati,9.14862318,45.50854141,POINT (9.14862318 45.50854141),alta
MILANO,RODANO,MI185.0016,AREA S.I.L.C.O. SRL,VIA PAPA GIOVANNI XXIII,n.d.,9.33537346,45.46980285,POINT (9.33537346 45.46980285),alta
BERGAMO,BERGAMO,BG024.0065,Area cantiere ALER,VIA BORGO PALAZZO,altri siti non meglio specificati,9.67749651,45.69831665,POINT (9.67749651 45.69831665),alta
VARESE,CARONNO PERTUSELLA,VA034.0012,AREA EX PARKOPLAST,"VIA AMILCARE PONCHIELLI, 227",aree industriali dismesse,9.05763206,45.58173674,POINT (9.05763206 45.58173674),alta
MILANO,TREZZO SULL ADDA,MI221.0016,"FORNACE DELL'ADDA, BETONVILLA S.P.A.","VIA EMILIO BRASCA, 131",n.d.,9.48845978,45.61708563,POINT (9.48845978 45.61708563),alta
MONZA E DELLA BRIANZA,LISSONE,MI123.0042,AREA EX MOBILIFICIO MARIANI,"VIA GIUSEPPE MISSORI, 19",aree industriali dismesse,9.24528737,45.62718867,POINT (9.24528737 45.62718867),alta
MONZA E DELLA BRIANZA,SEREGNO,MI208.0009,AREA EX SOCIETA' DELL'ORTO SPA,"VIA VALASSINA, 40",aree industriali dismesse,9.20472339,45.6614191,POINT (9.20472339 45.6614191),alta
BRESCIA,ISEO,BS085.0003,PUNTO VENDITA AGIP PETROLI N. 1436,"VIA CIOCHET, 9",impianti di stoccaggio o adduzione carburanti,10.02178368,45.65153622,POINT (10.02178368 45.65153622),alta
MILANO,MILANO,MI146.3174,PERICLE 2008 S.R.L. (EX AREA RICREATIVA FS),VIA PERICLE,altri siti non meglio specificati,9.21848501,45.51154412,POINT (9.21848501 45.51154412),alta
MONZA E DELLA BRIANZA,VILLASANTA,MI239.0005,ITALTRANS AUTOTRASPORTI DI DONATI MARCO & C.,STRADA VICINALE DEL SOLE,rilasci accidentali o dolosi di sostanze,9.30345769,45.59930218,POINT (9.30345769 45.59930218),alta
MILANO,MILANO,MI146.2793,AREA DI VIA RIZZOLI,VIA ANGELO RIZZOLI,altri siti non meglio specificati,9.24929496,45.50383172,POINT (9.24929496 45.50383172),alta
LODI,CODOGNO,LO019.0004,"SOCIETA' CORIO FIORI S.A.S DI CORIO ENRICO, ANGELA & C.",VIA DIAZ (ANGOLO VIA TRENTO),smaltimenti non autorizzati - abbandono rifiuti,9.6981389,45.15971544,POINT (9.6981389 45.15971544),alta
MILANO,MILANO,MI146.0095,DITTA ALCATEL ITALIA,"VIALE LUIGI BODIO, 33/39",aree industriali dismesse,9.16843159,45.49734497,POINT (9.16843159 45.49734497),alta
VARESE,VENEGONO SUPERIORE,VA137.0004,ALENIA AERMACCHI,"VIA PRIVATA ING. PAOLO FORESIO, 1",aree industriali in attività,8.90143345,45.75472205,POINT (8.90143345 45.75472205),bassa
MILANO,SENAGO,MI206.0031,AREA VIA B. CROCE 18 ADIACENTE PARCO GROANE,"VIA BENEDETTO CROCE, 18",n.d.,9.09985058,45.58192165,POINT (9.09985058 45.58192165),alta
LODI,LODI,LO031.0005,"Dismissione serbatoi, area ex industriale","VIALE MILANO, 28",aree industriali dismesse,9.49111375,45.31986329,POINT (9.49111375 45.31986329),alta
BRESCIA,BRESCIA,BS029.0028,"SCUOLA I.P.S.S.A.R. ""A. Mantegna""","VIA FURA, 96",altri siti non meglio specificati,10.18426156,45.52801327,POINT (10.18426156 45.52801327),alta
MILANO,MILANO,MI146.3057,AREA PRIVATA,VIA CANTONI 20,aree industriali dismesse,9.13349328,45.50568952,POINT (9.13349328 45.50568952),alta
MILANO,MILANO,MI146.2370,METROPOLITANA MILANESE M5 AREA PII ISOLA-LUNETTA,VIA GAETANO DE CASTILLIA,aree industriali dismesse,9.18832003,45.48527131,POINT (9.18832003 45.48527131),alta
MILANO,CORNAREDO,MI087.0006,SOCIETA' IMINVEST SRL - EX ALPHANIA,VIA R. MERENDI,aree industriali dismesse,9.0302828,45.48925217,POINT (9.0302828 45.48925217),alta
MILANO,MILANO,MI146.4163,IMMOBILIARE PORDENONE,"VIA PORDENONE, 6",altri siti non meglio specificati,9.23416595,45.4900071,POINT (9.23416595 45.4900071),alta
PAVIA,SIZIANO,PV150.0001,AREA EX PIRELLI - ARTIGO,S.P.BINASCO-MELEGNANO 40,aree industriali dismesse,9.23196963,45.33017936,POINT (9.23196963 45.33017936),alta
MILANO,NOVATE MILANESE,MI157.0001,EX SKW BIOSISTEM S.P.A,VIA BOVISASCA,aree industriali dismesse,9.1481393,45.52712574,POINT (9.1481393 45.52712574),alta
MILANO,VIMODRONE,MI242.0006,COSVIM S.r.l.,"VIA GENERALE ARMANDO DIAZ, 9",n.d.,9.28599355,45.51249626,POINT (9.28599355 45.51249626),alta
MILANO,GARBAGNATE MILANESE,MI105.0007,Area Ex PARKOPLAST,VIA BARIANELLA,aree industriali dismesse,9.05776059,45.58133403,POINT (9.05776059 45.58133403),alta
MONZA E DELLA BRIANZA,BRIOSCO,MI033.0003,Area Edilrocca,VIA PARINI-FRAZ.CAPRIANO,aree industriali dismesse,9.25810166,45.72381152,POINT (9.25810166 45.72381152),alta
MILANO,RHO,MI182.0002,ROTOINCISA CILINDRI S.R.L.,"VIA ENRICO MATTEI, 7",aree industriali in attività,9.02349243,45.53228791,POINT (9.02349243 45.53228791),alta
BRESCIA,BRESCIA,BS029.0179,"VIA NICOLINI, 5","VIA GIUSEPPE NICOLINI, 5",aree industriali dismesse,10.19716705,45.54613467,POINT (10.19716705 45.54613467),alta
MILANO,MILANO,MI146.2993,AREA VIA LOMELLINA,"VIA LOMELLINA, 28",n.d.,9.23020247,45.46422067,POINT (9.23020247 45.46422067),alta
MONZA E DELLA BRIANZA,VIMERCATE,MB050.0006,Area ex commerciale,"VIA ENRICO TOTI, 8",aree industriali dismesse,9.36533826,45.60454589,POINT (9.36533826 45.60454589),alta
MILANO,BOLLATE,MI027.0004,EUGENIO BORRONI S.r.l.,"VIA GIACOMO MATTEOTTI, 19",aree industriali dismesse,9.11990656,45.54460117,POINT (9.11990656 45.54460117),alta
MILANO,MILANO,MI146.2619,IMMOBILIARE GARIBALDI SRL,"CORSO GIUSEPPE GARIBALDI, 115",aree industriali dismesse,9.18564305,45.47897771,POINT (9.18564305 45.47897771),alta
LECCO,MERATE,LC048.0010,EX F.LLI FERRARIO,"VIA STATALE, 2",altri siti non meglio specificati,9.4086868,45.7175957,POINT (9.4086868 45.7175957),alta
MILANO,SAN GIULIANO MILANESE,MI195.0030,Ex P.V. IP 43094,"VIA PO, 6",aree industriali dismesse,9.25785446,45.39114745,POINT (9.25785446 45.39114745),alta
MILANO,MILANO,MI146.0381,ISTITUTO SIEROTERAPICO MILANESE - Area esterna alla discarica,"VIA GIOVANNI SEGANTINI, 64",aree industriali dismesse,9.17258968,45.44547827,POINT (9.17258968 45.44547827),alta
MILANO,MILANO,MI146.0775,AREA DITTA TREP,"VIA SELVANESCO, 57",n.d.,9.18718218,45.41639975,POINT (9.18718218 45.41639975),alta
MILANO,MILANO,MI146.4074,ORTI 4,"VIA ORTI, 4",altri siti non meglio specificati,9.19955464,45.45497236,POINT (9.19955464 45.45497236),alta
COMO,COMO,CO075.0027,AREA EX MESA S.R.L.,"VIA CECILIO, 38",aree industriali dismesse,9.06480067,45.78389021,POINT (9.06480067 45.78389021),alta
VARESE,CASSANO MAGNAGO,VA040.0008,ex Cava Gasparoli - Opera Infrastruttirale Pedemontana,TANGENZIALE DI VARESE-TRATTA A8-A9 COLLEGAMENTO AUTOSTRADALE DALMINE-COMO-VARESE-VALICO DEL GAGGIOLO,smaltimenti non autorizzati - abbandono rifiuti,8.8323174,45.66117159,POINT (8.8323174 45.66117159),alta
COMO,VILLA GUARDIA,CO245.0003,VASCA RIFIUTI FANGOSI EX MAESANI,VIA GIUSEPPE MAZZINI,smaltimenti non autorizzati - abbandono rifiuti,9.0279715,45.7776351,POINT (9.0279715 45.7776351),alta
PAVIA,BRESSANA BOTTARONE,PV023.0001,AREA ADIACENTE LINEA FF.SS. 35,LOCALITA' VALLE BOTTA,smaltimenti non autorizzati - abbandono rifiuti,9.1165541,45.0894127,POINT (9.1165541 45.0894127),alta
MILANO,MILANO,MI146.2808,"PALAZZO REALE, rimozione serbatoio",PIAZZETTA REALE 12,serbatoi carburante per riscaldamento,9.19214499,45.46366553,POINT (9.19214499 45.46366553),alta
VARESE,CARDANO AL CAMPO,VA032.0008,Area industriale Laminati Alluminio Gallarate,"VIA LAZZARETTO, 88/90",n.d.,8.7739415,45.63738452,POINT (8.7739415 45.63738452),alta
MONZA E DELLA BRIANZA,VILLASANTA,MI239.0001,FLOUS SRL - AREA EX SIRTORI CARLO,"VIA CARAVAGGIO, 53",aree industriali dismesse,9.30424804,45.59911077,POINT (9.30424804 45.59911077),alta
MILANO,BUCCINASCO,MI036.0030,AREA VLM SPA,"VIA DEI LAVORATORI, 14",aree industriali dismesse,9.09435593,45.41304852,POINT (9.09435593 45.41304852),alta
MILANO,MILANO,MI146.2489,CANTIERE TORRE DELLE ARTI,"VIA PRINCIPE EUGENIO, 1--3-5",serbatoi carburante per riscaldamento,9.16189065,45.48801414,POINT (9.16189065 45.48801414),alta
BRESCIA,DESENZANO DEL GARDA,BS067.0005,RIMOZIONE SERBATOI PVF 1015,"VIALE GUGLIELMO MARCONI, 2",impianti di stoccaggio o adduzione carburanti,10.52745502,45.46708352,POINT (10.52745502 45.46708352),alta
MILANO,CARPIANO,MI050.0001,"Centro Ecologico Padano CEP, IMMOBILIARE ERICANA SRL",STRADA PROVINCIALE 40,impianti di stoccaggio o adduzione carburanti,9.29147265,45.35095419,POINT (9.29147265 45.35095419),alta
BRESCIA,PADENGHE SUL GARDA,BS129.0003,"AREA GUNTER STREBEL, sversamento gasolio","VIA SAN CASSIANO, 40",altri siti non meglio specificati,10.53335235,45.50218717,POINT (10.53335235 45.50218717),bassa
MILANO,MILANO,MI146.4207,A.S.S.T. GRANDE OSPEDALE METROPOLITANO CA'GRANDA -NIGUARDA- PADIGLIONE EX ORIGGI,"VIA RENATO DONATELLI, 5",n.d.,9.19016733,45.51015381,POINT (9.19016733 45.51015381),alta
LODI,CRESPIATICA,LO025.0004,SOCIETA' PRESSPALI SPA,VIA DELLE INDUSTRIE,aree industriali in attività,9.58021015,45.34735427,POINT (9.58021015 45.34735427),alta
MILANO,MILANO,MI146.0899,AGIP P.V. PIAZZALE BIANCAMANO 8,"PIAZZALE BIANCAMANO, 8",impianti di stoccaggio o adduzione carburanti,9.18194551,45.47844052,POINT (9.18194551 45.47844052),alta
MILANO,LEGNANO,MI118.0024,AREA VIA BRAMANTE,"VIA DONATO BRAMANTE, 63",aree industriali dismesse,8.9191599,45.60095949,POINT (8.9191599 45.60095949),alta
MILANO,ROZZANO,MI189.0019,Immobile della Società Brianzadiesel S.p.a.,"VIA VOLTURNO, 10",n.d.,9.17030139,45.38865379,POINT (9.17030139 45.38865379),alta
MILANO,ROZZANO,MI189.0031,Area via Valleambrosia,"VIA VALLEAMBROSIA, 15",aree industriali dismesse,9.1552828,45.4011494,POINT (9.1552828 45.4011494),alta
MONZA E DELLA BRIANZA,CARATE BRIANZA,MI048.0004,Area Ex Valtorta,"VIA RIVERA, 63",aree industriali dismesse,9.236969,45.66300681,POINT (9.236969 45.66300681),alta
BERGAMO,SAN PELLEGRINO TERME,BG190.0002,Area ex Sanpellegrino,VIA TORQUATO TARAMELLI,aree industriali dismesse,9.66536623,45.84242072,POINT (9.66536623 45.84242072),alta
BRESCIA,NAVE,BS117.0017,Area Ex Cartiera Giustacchini,LOCALITA' MITRIA-,aree industriali dismesse,10.29150915,45.58740267,POINT (10.29150915 45.58740267),bassa
MILANO,RHO,MI182.0042,Area di Via Virgilio,"VIA VIRGILIO, 5",aree industriali dismesse,9.03139505,45.52586943,POINT (9.03139505 45.52586943),alta
MILANO,SETTIMO MILANESE,MI211.0013,AREA VIA PARINI,"VIA GIUSEPPE PARINI, 2",aree industriali dismesse,9.06023501,45.48878194,POINT (9.06023501 45.48878194),alta
BERGAMO,TORRE BOLDONE,BG214.0002,DITTA PEZZAMIFICIO BERGAMASCO DI NEDO S.n.c,"VIA TORQUATO TASSO, 29",aree industriali dismesse,9.71087516,45.71527321,POINT (9.71087516 45.71527321),alta
MANTOVA,CAVRIANA,MN018.0003,AREA COMUNE DI CAVRIANA ADIACENTE EX FAIS -PROPRIETÀ COMUNE,VIALE PIEVE,altri siti non meglio specificati,10.60740008,45.34561993,POINT (10.60740008 45.34561993),alta
MILANO,MILANO,MI146.0988,OPEN 40 S.R.L.,"VIA CESARE AJRAGHI, 40",aree industriali dismesse,9.14703527,45.49678066,POINT (9.14703527 45.49678066),alta
MILANO,MILANO,MI146.0118,"P.V. 1151, Q8","VIA LORENTEGGIO, 260",impianti di stoccaggio o adduzione carburanti,9.11986111,45.44489594,POINT (9.11986111 45.44489594),alta
PAVIA,MARZANO,PV087.0001,EX ALLEVAMENTO SUINICOLO MILANI,VIA ROMA,altri siti non meglio specificati,9.29541824,45.24777008,POINT (9.29541824 45.24777008),alta
MILANO,MILANO,MI146.2657,AREA ARTIGIANALE,"VIA ORESTE SALOMONE, 61",aree industriali dismesse,9.2414828,45.45095281,POINT (9.2414828 45.45095281),alta
MILANO,MILANO,MI146.0330,COMMERCIALE PETROLI SRL,"VIA CHIOGGIA, 12",impianti di stoccaggio o adduzione carburanti,9.21885462,45.49989826,POINT (9.21885462 45.49989826),alta
COMO,LAMBRUGO,CO121.0005,"Area inustriale ""Ex tessitura Molteni & C.""",VIA BRIANZA,n.d.,9.245726,45.75706759,POINT (9.245726 45.75706759),bassa
MILANO,ASSAGO,MI011.0014,"Palazzo F7, dismissione serbatoio",MILANOFIORI PALAZZO F7,n.d.,9.13685064,45.39887765,POINT (9.13685064 45.39887765),bassa
PAVIA,BORGO PRIOLO,PV016.0003,ditta MONTAGNA E FIGLI snc,LOCALITA' RIVAZZA,aree industriali in attività,9.14924115,44.94618191,POINT (9.14924115 44.94618191),bassa
MILANO,MILANO,MI146.4193,"SITO DI VIA EMO, 8","VIA ANGELO EMO, 8",aree industriali dismesse,9.24294502,45.50475438,POINT (9.24294502 45.50475438),alta
VARESE,MALNATE,VA096.0002,AREA EX RONCORONI MOLE ED EX SIOME,VIA I MAGGIO,aree industriali dismesse,8.88137347,45.80137519,POINT (8.88137347 45.80137519),alta
MILANO,VIMODRONE,MI242.0024,Area Ex Metrolegno,VIA XXV APRILE,aree industriali dismesse,9.28111825,45.51329838,POINT (9.28111825 45.51329838),alta
MILANO,SESTO SAN GIOVANNI,MI209.0081,ESPOSTO CADORE,"VIA CADORE, 72",altri siti non meglio specificati,9.25933929,45.5477409,POINT (9.25933929 45.5477409),alta
VARESE,ORIGGIO,VA109.0004,Area di Via per Cantalupo,"VIA PER CANTALUPO, 4",aree industriali dismesse,9.010051,45.59475784,POINT (9.010051 45.59475784),alta
MILANO,INVERUNO,MI113.0015,DISCARICA COMUNALE DI RSU,STRADA PER CASATE,n.d.,8.85453709,45.51800375,POINT (8.85453709 45.51800375),bassa
BERGAMO,MAPELLO,BG132.0003,AREA EX SOBEA - PROPRIETA' VIRGILIO S.p.A.,"VIA DEGLI ALPINI, 2",aree industriali dismesse,9.56126221,45.71320633,POINT (9.56126221 45.71320633),alta
MILANO,MILANO,MI146.3871,AREA TIBALDI (EX CACCIATORI DUE S.R.L.),"VIALE GORIZIA, 8",aree industriali dismesse,9.17368382,45.45431225,POINT (9.17368382 45.45431225),alta
COMO,LOMAZZO,CO133.0014,AREA OPERE DI LAMINAZIONE TORRENTE LURA - PROGETTO DI BONIFICA ART 249.,FOGLIO 1 MAPPALE 458,n.d.,9.03193015,45.69121793,POINT (9.03193015 45.69121793),bassa
PAVIA,VIGEVANO,PV177.0009,Area Megastampi,"CORSO MILANO, 70",aree industriali dismesse,8.87258938,45.3227356,POINT (8.87258938 45.3227356),alta
MILANO,MILANO,MI146.0199,Area ex SPARVOL,"VIA GIOVANNI ANTONIO AMADEO, 59ANGOLOTIRONE1",aree industriali dismesse,9.24004195,45.4709476,POINT (9.24004195 45.4709476),alta
MILANO,MILANO,MI146.1135,Area di Via Timavo,"VIA TIMAVO, 32",aree industriali dismesse,9.1986067,45.49056392,POINT (9.1986067 45.49056392),alta
MILANO,MILANO,MI146.2264,HOT SPOT 201 - PII GARIBALDI/REPUBBLICA,VIALE DON LUIGI STURZO,altri siti non meglio specificati,9.18760009,45.48335906,POINT (9.18760009 45.48335906),alta
MONZA E DELLA BRIANZA,LIMBIATE,MB027.0007,FALEGNAMERIA SPACOL,"VIA PIACENZA, 1",aree industriali dismesse,9.1286709,45.60070099,POINT (9.1286709 45.60070099),alta
MILANO,MILANO,MI146.0499,P.V. AGIP N. 55673,"VIA GALLARATE, 40",impianti di stoccaggio o adduzione carburanti,9.13895194,45.49464525,POINT (9.13895194 45.49464525),alta
MILANO,LAINATE,MI116.0037,REEF ITALIA SRL,"VIA GIACOMO LEOPARDI, 61",n.d.,9.02565695,45.56596031,POINT (9.02565695 45.56596031),bassa
MILANO,TURBIGO,MI226.0007,Area Ex Conceria Allevi,"VIA XXV APRILE 1945, 31",aree industriali dismesse,8.74736763,45.53522295,POINT (8.74736763 45.53522295),alta
MILANO,MILANO,MI146.0044,EX CARROZZERIA,"VIA FRANCESCO BRAMBILLA, 7/A",aree industriali dismesse,9.24683575,45.51222754,POINT (9.24683575 45.51222754),alta
LODI,COMAZZO,LO020.0004,SERBATOIO INTERRATO FRAZ LAVAGNA-COMAZZO,VIA MARCONI ANG.TOSCANINI-FRAZ LAVAGNA,serbatoi carburante per riscaldamento,9.44365296,45.46158554,POINT (9.44365296 45.46158554),alta
MILANO,BOLLATE,MI027.0094,AREA EX DITTA TIMAVO,"VIA CARLO CATTANEO, 1",aree industriali dismesse,9.10855065,45.5403555,POINT (9.10855065 45.5403555),alta
VARESE,GALLARATE,VA070.0018,Area EX Cotonificio Alceste Pasta,VIA FOGAZZARO ANG.VIA BOTTINI 1,aree industriali dismesse,8.7916127,45.6576636,POINT (8.7916127 45.6576636),alta
MILANO,MILANO,MI146.0236,"KENNAMETAL, Ca.Me.S","VIA MORIVIONE, 5/7",aree industriali dismesse,9.19478492,45.440611,POINT (9.19478492 45.440611),alta
MILANO,CORSICO,MI093.0007,TUTTO EX AREA INDUSTRIALE,"VIA GIOSUE' CARDUCCI, 8",aree industriali dismesse,9.11282655,45.42826189,POINT (9.11282655 45.42826189),alta
BRESCIA,BAGNOLO MELLA,BS009.0007,SHERATON ITALIANA,"VIA LIZZERE, 2",altri siti non meglio specificati,10.19184812,45.4319179,POINT (10.19184812 45.4319179),alta
MILANO,RODANO,MI185.0002,POZZO POBBIANO - ENI S.P.A,S.P.N.182,attività minerarie o estrattive,9.34831375,45.47053613,POINT (9.34831375 45.47053613),bassa
MONZA E DELLA BRIANZA,BOVISIO MASCIAGO,MB010.0002,EX BRIANZA METALLI S.R.L.,"VIA TOLMINO, 132",aree industriali dismesse,9.1635967,45.6125781,POINT (9.1635967 45.6125781),alta
CREMONA,SALVIROLA,CR087.0001,"PV 6085, TAMOIL PETROLI SPA","VIA UMBERTO I, 18",impianti di stoccaggio o adduzione carburanti,9.77958762,45.3592601,POINT (9.77958762 45.3592601),alta
MILANO,CINISELLO BALSAMO,MI077.0003,ANCHERFAM,"VIALE LOMBARDIA, 5",rilasci accidentali o dolosi di sostanze,9.22375549,45.54637268,POINT (9.22375549 45.54637268),alta
SONDRIO,LIVIGNO,SO037.0004,CU.BA. SAS IN LOCALITA' CONTRIN,"VIA PEDRANA, 500",impianti di stoccaggio o adduzione carburanti,10.12811444,46.52802312,POINT (10.12811444 46.52802312),alta
VARESE,BUSTO ARSIZIO,VA026.0096,EX MANIFATTURA CISALPINA,VIA XX SETTEMBRE/VIATIGROTTI,aree industriali dismesse,8.87118466,45.61265785,POINT (8.87118466 45.61265785),alta
MILANO,SEDRIANO,MI204.0001,EX CAVA BOTTONI,VIA ENRICO MATTEI,smaltimenti non autorizzati - abbandono rifiuti,8.96339006,45.49110795,POINT (8.96339006 45.49110795),alta
MILANO,MILANO,MI146.2635,"PII GARIBALDI REPUBBLICA - AREA PARCO, SUBAREA A",VIA GAETANO DE CASTILLIA,altri siti non meglio specificati,9.18832003,45.48527131,POINT (9.18832003 45.48527131),alta
BRESCIA,RONCADELLE,BS165.0017,AREA EX MONDOLIBRI,"VIA MANDOLOSSA, 43/45",aree industriali dismesse,10.13621735,45.55003234,POINT (10.13621735 45.55003234),alta
VARESE,VERGIATE,VA138.0003,Rotatoria via S. Rocco - Sversamento accidentale di gasolio del 08/10/2007,S.P.S.P.N18 ROTATORIA CON VIA S.ROCCO,altri siti non meglio specificati,8.70321499,45.73153139,POINT (8.70321499 45.73153139),bassa
PAVIA,GARLASCO,PV069.0009,"km 3 + 900, SVERSAMENTO ACCIDENTALE",STRADA PROVINCIALE 206,n.d.,8.92835014,45.18949905,POINT (8.92835014 45.18949905),alta
MILANO,MILANO,MI146.1733,P.V. IP 5561,"VIALE BACCHIGLIONE, 24",impianti di stoccaggio o adduzione carburanti,9.22270315,45.44379007,POINT (9.22270315 45.44379007),alta
BERGAMO,COLOGNO AL SERIO,BG079.0005,EX OS.C.ALL,"VIA DEI BOSCHETTI, 3",aree industriali dismesse,9.70606016,45.58334478,POINT (9.70606016 45.58334478),alta
MILANO,BUSTO GAROLFO,MI041.0011,EX MANIFATTURA CACCIA,VIA GIOVANNI RANDACCIO,aree industriali dismesse,8.87823569,45.5470908,POINT (8.87823569 45.5470908),alta
MILANO,SAN GIULIANO MILANESE,MI195.0008,Area di via Po - Ex Tecnologistica,"VIA PO, 7",aree industriali in attività,9.26087345,45.3874579,POINT (9.26087345 45.3874579),alta
MILANO,MELZO,MI142.0019,EX STAZIONE FERROVIARIA,VIA CAMILLO CAVOUR,n.d.,9.42094432,45.50144552,POINT (9.42094432 45.50144552),alta
MILANO,CINISELLO BALSAMO,MI077.0009,Area di Via Vespri Siciliani,"VIA VESPRI SICILIANI, 12",aree industriali in attività,9.2108957,45.56861517,POINT (9.2108957 45.56861517),alta
MONZA E DELLA BRIANZA,MONZA,MI149.0017,"COOPERATIVA SESTESE DI ABITAZIONE ""CAMAGNI OLMINI"" - discarica abusiva",VIALE LIBERTA',discariche abusive o incontrollate,9.28759042,45.58808839,POINT (9.28759042 45.58808839),alta
MILANO,COLOGNO MONZESE,MI081.0058,ENI S.P.A. - STAZIONE DI SERVIZIO,"VIA MILANO, 158",impianti di stoccaggio o adduzione carburanti,9.26582144,45.51681315,POINT (9.26582144 45.51681315),alta
BRESCIA,LENO,BS088.0002,Area Ditta Ferrorottami srl,VIA RISPARMIO 2,aree industriali in attività,10.2162728,45.36545393,POINT (10.2162728 45.36545393),bassa
MILANO,MILANO,MI146.2990,Area di Via Alberto Mario,"VIA ALBERTO MARIO, 15-19",n.d.,9.15043845,45.47113804,POINT (9.15043845 45.47113804),alta
VARESE,CASTELLANZA,VA042.0040,Sversamento a seguito sinistro KM 19 + 100,A8,n.d.,8.90038625,45.61345687,POINT (8.90038625 45.61345687),bassa
BRESCIA,VILLA CARCINA,BS199.0017,LMI - LOTTIZZAZIONE PA5 - NUOVA FARMACIA COMUNALE,VIA GUGLIELMO MARCONI,aree industriali dismesse,10.19874861,45.63209878,POINT (10.19874861 45.63209878),alta
MILANO,MILANO,MI146.0177,RAFFINERIA FINALUBE - PRU PALIZZI,"VIA ERITREA, 2",aree industriali dismesse,9.13817894,45.50863879,POINT (9.13817894 45.50863879),alta
MILANO,MASATE,MI136.0004,EX COMOTTI,"VIA MILANO, 1",aree industriali dismesse,9.46117333,45.56630885,POINT (9.46117333 45.56630885),alta
MILANO,SAN DONATO MILANESE,MI192.0028,Via OLONA,VIA OLONA,smaltimenti non autorizzati - abbandono rifiuti,9.2671443,45.4086084,POINT (9.2671443 45.4086084),alta
VARESE,GORNATE OLONA,VA080.0005,Area di Via Asiago,"VIA ASIAGO, 8",aree industriali dismesse,8.87281483,45.74000338,POINT (8.87281483 45.74000338),alta
MILANO,PIOLTELLO,MI175.0011,AREA VIA C. FERRARI,"VIA CARDINALE ANDREA FERRARI, 1",n.d.,9.32352429,45.4884236,POINT (9.32352429 45.4884236),alta
MILANO,MILANO,MI146.0600,VOULAZ SRL,"VIA STEFANARDO DA VIMERCATE, 5/7",impianti di stoccaggio o adduzione carburanti,9.22474606,45.50613186,POINT (9.22474606 45.50613186),alta
VARESE,LAVENO - MOMBELLO,VA087.0003,CELLINA CASE SRL,VIA DIAZ-MARTIRI DELLA LIBERTA',aree industriali dismesse,8.62247552,45.90649066,POINT (8.62247552 45.90649066),alta
LECCO,ROGENO,LC072.0001,ex Ditta ISER S.r.l.,N.D.,n.d.,9.26989945,45.78787113,POINT (9.26989945 45.78787113),bassa
MILANO,MILANO,MI146.0818,AREA ARTIGIANALE DISMESSA,"VIA LEONARDO BRUNI, 23",aree industriali dismesse,9.17482489,45.50085631,POINT (9.17482489 45.50085631),alta
BERGAMO,VILLA D ALME,BG239.0002,"Telecom Italia, serbatoio",N.D.,serbatoi carburante per riscaldamento,9.62271289,45.75189618,POINT (9.62271289 45.75189618),bassa
MILANO,MILANO,MI146.4038,CONDOMINIO,"VIA ANTEGNATI, 7-15",aree industriali dismesse,9.19678088,45.42668343,POINT (9.19678088 45.42668343),alta
VARESE,BUSTO ARSIZIO,VA026.0028,AREA VIA FOSCOLO,"VIA UGO FOSCOLO, 16",aree industriali dismesse,8.85316434,45.60715089,POINT (8.85316434 45.60715089),alta
MILANO,CUSANO MILANINO,MI098.0004,AREA DISMESSA EX IMOVA,"VIA GIUSEPPE ZUCCHI, 13/A",aree industriali dismesse,9.17520127,45.55009852,POINT (9.17520127 45.55009852),alta
SONDRIO,LIVIGNO,SO037.0008,CONDOMINIO TEOLA SVERSAMENTO GASOLIO DA RISCALDAMENTO,"VIA TEOLA, 562562",rilasci accidentali o dolosi di sostanze,10.14200492,46.53420379,POINT (10.14200492 46.53420379),alta
